{"type":"FeatureCollection",
"information":"properties: libel= libellé officiel de la gare, uic= code international (UIC de 8 chiffres, qui commence par 87=France, 80=Allemagne, 82=Luxembourg, 88=Belgique, 85=Suisse, 83=Italie, 71=Espagne, 70=UK ... si n° non connu il est inventé de manière unique : n° proche de gares voisines, ou 87000080 pour frontière franco-allemande, ...), num= code officiel de la ligne SNCF (si n° non connu exceptionellement = proche d'une ligne associée), pk= point km de la gare (interpollé si non connu), rang= 1 dans la plupart des cas (et par défaut si absent), frevoy= double booléen prour frêt-voyageurs (NN,ON,NO,OO), nom= de la commune qui héberge la gare (si absent =libel), insee= code insee de cette commune, info= description complémentaire (eg: lien page wikipedia, cas particuliers ex:gare en limite de département, problème de qualité de localisation ...). Les properties idgaia et idreseau de la source sont ignorées: idgaia car même spécificité que uic et idreseau car impossible à inventer si absence. Voir si usage","sources":"SNCF, SNCB, Lux, DB_Nerz https://webzine.one/suisse/carte-trains-voies-ferrees/","data_quality":"qualité héritée du fichier source, sauf cas particuliers indiqués en info : en particulier 'Point_ok':point meilleur que 2nde source (150), 'twin better':2nde source meilleure (30), 'inconsistence':erreur point corrigé (70), 'ajout':point vérifié (550). Dans les toponymes: St- et Ste- sont remplacés par Saint- et Sainte-. Si UIC est inconnu (note UIC? en info), il est mis à 87000000, ou 'interpollé' entre les UIC des PK précédents et suivants de la même ligne, tout en restant (théoriquement) unique, sauf s'il s'agit d'équipements liés à une même gare (ex.: bifurcation en sortie de gare). Si PK inconnu (noté par: ajout?? ou ajout=? ou PK? en info) il est mis à 0 ou 0+xxx en attente de correction manuelle. Notation des ajouts: ajout (simple) | ajout? (si UIC?) | ajout?? (si UIC? et PK?) | ajout??? (UIC? PK? et num? : rare)",
"default_values":"rang:rang!=null?rang:1, nom:nom||libel",
"features":[
{"properties":{"libel":"Paris-Est","uic":"87113001","num":"001000","pk":"0+000","frevoy":"NO","nom":"Paris","insee":"75110"},"type":"Feature","geometry":{"type":"Point","coordinates":[2.35893,48.87737]}},
{"properties":{"libel":"Rosa Parks","uic":"87654798","num":"001000","pk":"2+490","frevoy":"NO","nom":"Paris-19","insee":"75119"},"type":"Feature","geometry":{"type":"Point","coordinates":[2.37952,48.89756]}},
{"properties":{"libel":"Paris-La Villette-Hébert","uic":"87113134","num":"001000","pk":"2+000","frevoy":"ON","nom":"Paris-18","insee":"75119"},"type":"Feature","geometry":{"type":"Point","coordinates":[2.37076,48.89508]}},
{"properties":{"libel":"Pantin","uic":"87113209","num":"001000","pk":"4+460","frevoy":"OO","nom":"Pantin","insee":"93055"},"type":"Feature","geometry":{"type":"Point","coordinates":[2.40025,48.89807]}},
{"properties":{"libel":"Noisy-le-Sec","uic":"87113217","num":"001000","pk":"8+910","frevoy":"OO","nom":"Noisy-le-Sec","insee":"93053"},"type":"Feature","geometry":{"type":"Point","coordinates":[2.46035,48.89663]}},
{"properties":{"libel":"Rosny-Bois-Perrier","uic":"87113696","num":"001000","pk":"11+216","frevoy":"NO","nom":"Rosny-sous-Bois","insee":"93064"},"type":"Feature","geometry":{"type":"Point","coordinates":[2.48138,48.88259]}},
{"properties":{"libel":"Rosny-sous-Bois","uic":"87113704","num":"001000","pk":"12+631","frevoy":"NO","nom":"Rosny-sous-Bois","insee":"93064"},"type":"Feature","geometry":{"type":"Point","coordinates":[2.48608,48.87064]}},
{"properties":{"libel":"Val-de-Fontenay","uic":"87113712","num":"001000","pk":"14+490","frevoy":"NO","nom":"Fontenay-sous-Bois","insee":"94033"},"type":"Feature","geometry":{"type":"Point","coordinates":[2.48919,48.8542]}},
{"properties":{"libel":"Nogent-Le Perreux","uic":"87113746","num":"001000","pk":"16+238","frevoy":"OO","nom":"Nogent-sur-Marne","insee":"94052"},"type":"Feature","geometry":{"type":"Point","coordinates":[2.49409,48.83874]}},
{"properties":{"libel":"Les Boullereaux-Champigny","uic":"87113779","num":"001000","pk":"18+473","frevoy":"NO","nom":"Champigny-sur-Marne","insee":"94017"},"type":"Feature","geometry":{"type":"Point","coordinates":[2.51179,48.82482]}},
{"properties":{"libel":"Villiers-sur-Marne-Le Plessis-Trévise","uic":"87113795","num":"001000","pk":"20+741","frevoy":"NO","nom":"Villiers-sur-Marne","insee":"94079"},"type":"Feature","geometry":{"type":"Point","coordinates":[2.54242,48.82308]}},
{"properties":{"libel":"Les Yvris-Noisy-le-Grand","uic":"87113803","num":"001000","pk":"23+843","frevoy":"NO","nom":"Noisy-le-Grand","insee":"93051"},"type":"Feature","geometry":{"type":"Point","coordinates":[2.57906,48.82356]}},
{"properties":{"libel":"Émerainville-Pontault-Combault","uic":"87116046","num":"001000","pk":"27+224","frevoy":"OO","nom":"Émerainville","insee":"77169"},"type":"Feature","geometry":{"type":"Point","coordinates":[2.61732,48.80647]}},
{"properties":{"libel":"Roissy-en-Brie","uic":"87116038","num":"001000","pk":"29+880","frevoy":"NO","nom":"Roissy-en-Brie","insee":"77390"},"type":"Feature","geometry":{"type":"Point","coordinates":[2.65031,48.79568]}},
{"properties":{"libel":"Ozoir-la-Ferrière","uic":"87116020","num":"001000","pk":"34+207","frevoy":"NO","nom":"Ozoir-la-Ferrière","insee":"77350"},"type":"Feature","geometry":{"type":"Point","coordinates":[2.69033,48.77073]}},
{"properties":{"libel":"Gretz-Armainvilliers","uic":"87116012","num":"001000","pk":"38+321","frevoy":"OO","nom":"Gretz-Armainvilliers","insee":"77215"},"type":"Feature","geometry":{"type":"Point","coordinates":[2.72866,48.74532]}},
{"properties":{"libel":"Villepatour-Presles","uic":"87116053","num":"001000","pk":"43+925","frevoy":"NN","nom":"Presles-en-Brie","insee":"77377"},"type":"Feature","geometry":{"type":"Point","coordinates":[2.74353,48.69665]}},
{"properties":{"libel":"Ozouer-le-Voulgis","uic":"87116061","num":"001000","pk":"48+489","frevoy":"NN","nom":"Ozouer-le-Voulgis","insee":"77352"},"type":"Feature","geometry":{"type":"Point","coordinates":[2.78163,48.66588]}},
{"properties":{"libel":"Verneuil-l'Étang","uic":"87116079","num":"001000","pk":"52+461","frevoy":"OO","nom":"Verneuil-l'Étang","insee":"77493"},"type":"Feature","geometry":{"type":"Point","coordinates":[2.82487,48.64452]}},
{"properties":{"libel":"Mormant","uic":"87116087","num":"001000","pk":"58+302","frevoy":"NO","nom":"Mormant","insee":"77317"},"type":"Feature","geometry":{"type":"Point","coordinates":[2.88897,48.61369]}},
{"properties":{"libel":"Grandpuits-Bagneux","uic":"87112086","num":"001000","pk":"62+480","frevoy":"ON","nom":"Aubepierre-Ozouer-le-Repos","insee":"77010"},"type":"Feature","geometry":{"type":"Point","coordinates":[2.94022,48.59801]}},
{"properties":{"libel":"Grandpuits","uic":"87115881","num":"001000","pk":"64+828","frevoy":"ON","nom":"Grandpuits-Bailly-Carrois","insee":"77211"},"type":"Feature","geometry":{"type":"Point","coordinates":[2.96948,48.58967]}},
{"properties":{"libel":"Nangis","uic":"87116095","num":"001000","pk":"69+330","frevoy":"OO","nom":"Nangis","insee":"77327"},"type":"Feature","geometry":{"type":"Point","coordinates":[3.01285,48.56136]}},
{"properties":{"libel":"Maison-Rouge-en-Brie","uic":"87116129","num":"001000","pk":"79+694","frevoy":"ON","nom":"Lizines","insee":"77272"},"type":"Feature","geometry":{"type":"Point","coordinates":[3.14695,48.5363]}},
{"properties":{"libel":"Longueville","uic":"87116137","num":"001000","pk":"88+176","frevoy":"OO","nom":"Longueville","insee":"77260"},"type":"Feature","geometry":{"type":"Point","coordinates":[3.25024,48.51357]}},
{"properties":{"libel":"Flamboin-Gouaix","uic":"87116145","num":"001000","pk":"95+047","frevoy":"ON","nom":"Gouaix","insee":"77208"},"type":"Feature","geometry":{"type":"Point","coordinates":[3.29462,48.47251]}},
{"properties":{"libel":"Herme","uic":"87116152","num":"001000","pk":"99+551","frevoy":"NN","nom":"Hermé","insee":"77227"},"type":"Feature","geometry":{"type":"Point","coordinates":[3.35178,48.48434]}},
{"properties":{"libel":"Nogent-sur-Seine","uic":"87118190","num":"001000","pk":"110+349","frevoy":"OO","nom":"Nogent-sur-Seine","insee":"10268"},"type":"Feature","geometry":{"type":"Point","coordinates":[3.49383,48.49795]}},
{"properties":{"libel":"Marnay-sur-Seine","uic":"87118182","num":"001000","pk":"116+088","frevoy":"NN","nom":"Marnay-sur-Seine","insee":"10225"},"type":"Feature","geometry":{"type":"Point","coordinates":[3.56155,48.50946]}},
{"properties":{"libel":"Pont-sur-Seine","uic":"87118174","num":"001000","pk":"118+932","frevoy":"NN","nom":"Pont-sur-Seine","insee":"10298"},"type":"Feature","geometry":{"type":"Point","coordinates":[3.59943,48.51397]}},
{"properties":{"libel":"Crancey","uic":"87118166","num":"001000","pk":"121+952","frevoy":"ON","nom":"Crancey","insee":"10114"},"type":"Feature","geometry":{"type":"Point","coordinates":[3.64002,48.51516]}},
{"properties":{"libel":"Romilly-sur-Seine","uic":"87118158","num":"001000","pk":"128+739","frevoy":"OO","nom":"Romilly-sur-Seine","insee":"10323"},"type":"Feature","geometry":{"type":"Point","coordinates":[3.72858,48.51402]}},
{"properties":{"libel":"Maizières-la-Grande-Paroisse","uic":"87118141","num":"001000","pk":"133+195","frevoy":"NN","nom":"Maizières-la-Grande-Paroisse","insee":"10220"},"type":"Feature","geometry":{"type":"Point","coordinates":[3.786,48.50502]}},
{"properties":{"libel":"Châtres (Aube)","uic":"87118133","num":"001000","pk":"138+361","frevoy":"ON","nom":"Châtres","insee":"10089"},"type":"Feature","geometry":{"type":"Point","coordinates":[3.8553,48.49913]}},
{"properties":{"libel":"Mesgrigny-Méry","uic":"87118125","num":"001000","pk":"140+666","frevoy":"NN","nom":"Mesgrigny","insee":"10234"},"type":"Feature","geometry":{"type":"Point","coordinates":[3.88019,48.48668]}},
{"properties":{"libel":"Vallant-Saint-Georges","uic":"87118117","num":"001000","pk":"143+386","frevoy":"NN","nom":"Vallant-Saint-Georges","insee":"10392"},"type":"Feature","geometry":{"type":"Point","coordinates":[3.89944,48.46607]}},
{"properties":{"libel":"Saint-Mesmin","uic":"87118091","num":"001000","pk":"146+996","frevoy":"ON","nom":"Saint-Mesmin","insee":"10353"},"type":"Feature","geometry":{"type":"Point","coordinates":[3.92552,48.43867]}},
{"properties":{"libel":"Savières","uic":"87118083","num":"001000","pk":"151+248","frevoy":"NN","nom":"Savières","insee":"10368"},"type":"Feature","geometry":{"type":"Point","coordinates":[3.9509,48.40431]}},
{"properties":{"libel":"Payns","uic":"87118075","num":"001000","pk":"154+406","frevoy":"NN","nom":"Payns","insee":"10282"},"type":"Feature","geometry":{"type":"Point","coordinates":[3.97421,48.38068]}},
{"properties":{"libel":"Saint-Lyé","uic":"87118067","num":"001000","pk":"157+467","frevoy":"NN","nom":"Saint-Lyé","insee":"10349"},"type":"Feature","geometry":{"type":"Point","coordinates":[3.99949,48.3589]}},
{"properties":{"libel":"Barberey-Saint-Sulpice","uic":"87118059","num":"001000","pk":"160+775","frevoy":"NN","nom":"Barberey-Saint-Sulpice","insee":"10030"},"type":"Feature","geometry":{"type":"Point","coordinates":[4.02686,48.33524]}},
{"properties":{"libel":"Troyes","uic":"87118000","num":"001000","pk":"166+193","frevoy":"OO","nom":"Troyes","insee":"10387"},"type":"Feature","geometry":{"type":"Point","coordinates":[4.06484,48.29588]}},
{"properties":{"libel":"Rouilly-Saint-Loup","uic":"87118208","num":"001000","pk":"174+702","frevoy":"NN","nom":"Rouilly-Saint-Loup","insee":"10329"},"type":"Feature","geometry":{"type":"Point","coordinates":[4.15452,48.26149]}},
{"properties":{"libel":"Montaulin","uic":"87118216","num":"001000","pk":"177+669","frevoy":"NN","nom":"Montaulin","insee":"10245"},"type":"Feature","geometry":{"type":"Point","coordinates":[4.19433,48.25917]}},
{"properties":{"libel":"Lusigny","uic":"87118224","num":"001000","pk":"181+962","frevoy":"NN","nom":"Lusigny-sur-Barse","insee":"10209"},"type":"Feature","geometry":{"type":"Point","coordinates":[4.25057,48.25245]}},
{"properties":{"libel":"Montiéramey","uic":"87118232","num":"001000","pk":"188+471","frevoy":"NN","nom":"Montiéramey","insee":"10249"},"type":"Feature","geometry":{"type":"Point","coordinates":[4.32892,48.22701]}},
{"properties":{"libel":"La Villeneuve-au-Chène","uic":"87118240","num":"001000","pk":"193+021","frevoy":"NN","nom":"La Villeneuve-au-Chêne","insee":"10423"},"type":"Feature","geometry":{"type":"Point","coordinates":[4.38895,48.22921]}},
{"properties":{"libel":"Vendeuvre (Aube)","uic":"87118257","num":"001000","pk":"198+965","frevoy":"NO","nom":"Vendeuvre-sur-Barse","insee":"10401"},"type":"Feature","geometry":{"type":"Point","coordinates":[4.46729,48.24028]}},
{"properties":{"libel":"Vauchonvilliers-Maisons-des-Champs","uic":"87118265","num":"001000","pk":"204+779","frevoy":"NN","nom":"Vauchonvilliers","insee":"10397"},"type":"Feature","geometry":{"type":"Point","coordinates":[4.5379,48.26063]}},
{"properties":{"libel":"Jessains","uic":"87118273","num":"001000","pk":"209+993","frevoy":"ON","nom":"Jessains","insee":"10178"},"type":"Feature","geometry":{"type":"Point","coordinates":[4.58313,48.28464]}},
{"properties":{"libel":"Arsonval-Jaucourt","uic":"87118281","num":"001000","pk":"215+462","frevoy":"NN","nom":"Jaucourt","insee":"10176"},"type":"Feature","geometry":{"type":"Point","coordinates":[4.64716,48.26092]}},
{"properties":{"libel":"Bar-sur-Aube","uic":"87118299","num":"001000","pk":"220+605","frevoy":"OO","nom":"Bar-sur-Aube","insee":"10033"},"type":"Feature","geometry":{"type":"Point","coordinates":[4.7069,48.23864]}},
{"properties":{"libel":"Bayel","uic":"87118307","num":"001000","pk":"228+221","frevoy":"NN","nom":"Bayel","insee":"10035"},"type":"Feature","geometry":{"type":"Point","coordinates":[4.78471,48.19761]}},
{"properties":{"libel":"Clairvaux","uic":"87118315","num":"001000","pk":"233+617","frevoy":"ON","nom":"Longchamp-sur-Aujon","insee":"10203"},"type":"Feature","geometry":{"type":"Point","coordinates":[4.80195,48.15834]}},
{"properties":{"libel":"Maranville","uic":"87142018","num":"001000","pk":"239+127","frevoy":"NN","nom":"Maranville","insee":"52308"},"type":"Feature","geometry":{"type":"Point","coordinates":[4.86976,48.13962]}},
{"properties":{"libel":"Bricon","uic":"87142026","num":"001000","pk":"249+530","frevoy":"ON","nom":"Bricon","insee":"52076"},"type":"Feature","geometry":{"type":"Point","coordinates":[4.97907,48.0874]}},
{"properties":{"libel":"Villiers-le-Sec","uic":"87142034","num":"001000","pk":"256+837","frevoy":"ON","nom":"Villiers-le-Sec","insee":"52535"},"type":"Feature","geometry":{"type":"Point","coordinates":[5.06864,48.11205]}},
{"properties":{"libel":"Chaumont","uic":"87142000","num":"001000","pk":"261+821","frevoy":"OO","nom":"Chaumont","insee":"52121"},"type":"Feature","geometry":{"type":"Point","coordinates":[5.13399,48.10956]}},
{"properties":{"libel":"Luzy-sur-Marne","uic":"87142042","num":"001000","pk":"269+930","frevoy":"NN","nom":"Luzy-sur-Marne","insee":"52297"},"type":"Feature","geometry":{"type":"Point","coordinates":[5.18085,48.06038]}},
{"properties":{"libel":"Foulain","uic":"87142059","num":"001000","pk":"273+409","frevoy":"NN","nom":"Foulain","insee":"52205"},"type":"Feature","geometry":{"type":"Point","coordinates":[5.21,48.04201]}},
{"properties":{"libel":"Vesaignes-sur-Marne","uic":"87142067","num":"001000","pk":"280+637","frevoy":"NN","nom":"Vesaignes-sur-Marne","insee":"52518"},"type":"Feature","geometry":{"type":"Point","coordinates":[5.26328,47.99827]}},
{"properties":{"libel":"Rolampont","uic":"87142075","num":"001000","pk":"286+402","frevoy":"ON","nom":"Rolampont","insee":"52432"},"type":"Feature","geometry":{"type":"Point","coordinates":[5.28296,47.94879]}},
{"properties":{"libel":"Humes","uic":"87142083","num":"001000","pk":"291+869","frevoy":"NN","nom":"Humes-Jorquenay","insee":"52246"},"type":"Feature","geometry":{"type":"Point","coordinates":[5.30232,47.90584]}},
{"properties":{"libel":"Langres","uic":"87142091","num":"001000","pk":"296+696","frevoy":"OO","nom":"Peigney","insee":"52269"},"type":"Feature","geometry":{"type":"Point","coordinates":[5.34278,47.87826]}},
{"properties":{"libel":"Culmont-Chalindrey","uic":"87142125","num":"001000","pk":"307+627","frevoy":"OO","nom":"Chalindrey","insee":"52155"},"type":"Feature","geometry":{"type":"Point","coordinates":[5.44359,47.80969]}},
{"properties":{"libel":"Chaudenay (Haute-Marne)","uic":"87142133","num":"001000","pk":"311+851","frevoy":"NN","nom":"Chaudenay","insee":"52119"},"type":"Feature","geometry":{"type":"Point","coordinates":[5.49058,47.82507]}},
{"properties":{"libel":"Hortes","uic":"87142141","num":"001000","pk":"316+724","frevoy":"NN","nom":"Haute-Amance","insee":"52242"},"type":"Feature","geometry":{"type":"Point","coordinates":[5.54915,47.83406]}},
{"properties":{"libel":"Charmoy-Fayl-Billot","uic":"87142158","num":"001000","pk":"323+416","frevoy":"NN","nom":"Fayl-Billot","insee":"52197"},"type":"Feature","geometry":{"type":"Point","coordinates":[5.62921,47.82635]}},
{"properties":{"libel":"Laferté-sur-Amance","uic":"87142166","num":"001000","pk":"327+667","frevoy":"NN","nom":"Laferté-sur-Amance","insee":"52257"},"type":"Feature","geometry":{"type":"Point","coordinates":[5.68269,47.8224]}},
{"properties":{"libel":"Vitrey-Vernois","uic":"87142174","num":"001000","pk":"335+766","frevoy":"NN","nom":"Vernois-sur-mance","insee":"70548"},"type":"Feature","geometry":{"type":"Point","coordinates":[5.78115,47.83242]}},
{"properties":{"libel":"Barges-Cemboing","uic":"87142182","num":"001000","pk":"342+654","frevoy":"NN","nom":"Cemboing","insee":"70112"},"type":"Feature","geometry":{"type":"Point","coordinates":[5.86358,47.85526]}},
{"properties":{"libel":"Jussey","uic":"87185355","num":"001000","pk":"346+406","frevoy":"ON","nom":"Jussey","insee":"70292"},"type":"Feature","geometry":{"type":"Point","coordinates":[5.9036,47.83706]}},
{"properties":{"libel":"Montureux-lès-Baulay","uic":"87185280","num":"001000","pk":"353+512","frevoy":"NN","nom":"Montureux-lès-Baulay","insee":"70372"},"type":"Feature","geometry":{"type":"Point","coordinates":[5.98714,47.81317]}},
{"properties":{"libel":"Port-d'Atelier-Amance","uic":"87185108","num":"001000","pk":"360+510","frevoy":"ON","nom":"Faverney","insee":"70228"},"type":"Feature","geometry":{"type":"Point","coordinates":[6.04006,47.76254]}},
{"properties":{"libel":"Port-sur-Saône","uic":"87185124","num":"001000","pk":"369+133","frevoy":"NN","nom":"Port-sur-Saône","insee":"70421"},"type":"Feature","geometry":{"type":"Point","coordinates":[6.05336,47.6896]}},
{"properties":{"libel":"Grattery","uic":"87185157","num":"001000","pk":"372+155","frevoy":"NN","nom":"Grattery","insee":"70278"},"type":"Feature","geometry":{"type":"Point","coordinates":[6.08231,47.67168]}},
{"properties":{"libel":"Vaivre","uic":"87185165","num":"001000","pk":"376+868","frevoy":"NN","nom":"Vaivre-et-Montoille","insee":"70513"},"type":"Feature","geometry":{"type":"Point","coordinates":[6.10358,47.63325]}},
{"properties":{"libel":"Vesoul","uic":"87185009","num":"001000","pk":"380+965","frevoy":"OO","nom":"Vesoul","insee":"70550"},"type":"Feature","geometry":{"type":"Point","coordinates":[6.15189,47.61756]}},
{"properties":{"libel":"Colombier","uic":"87185207","num":"001000","pk":"388+211","frevoy":"NN","nom":"Colombier","insee":"70163"},"type":"Feature","geometry":{"type":"Point","coordinates":[6.21455,47.6608]}},
{"properties":{"libel":"Creveney-Saulx","uic":"87185215","num":"001000","pk":"394+464","frevoy":"NN","nom":"Creveney","insee":"70188"},"type":"Feature","geometry":{"type":"Point","coordinates":[6.28728,47.68299]}},
{"properties":{"libel":"Genevreuille","uic":"87185231","num":"001000","pk":"402+409","frevoy":"NN","nom":"Genevreuille","insee":"70262"},"type":"Feature","geometry":{"type":"Point","coordinates":[6.38121,47.67843]}},
{"properties":{"libel":"Lure","uic":"87185249","num":"001000","pk":"410+969","frevoy":"OO","nom":"Lure","insee":"70310"},"type":"Feature","geometry":{"type":"Point","coordinates":[6.49258,47.68297]}},
{"properties":{"libel":"Ronchamp","uic":"87185314","num":"001000","pk":"421+126","frevoy":"NO","nom":"Ronchamp","insee":"70451"},"type":"Feature","geometry":{"type":"Point","coordinates":[6.62336,47.69911]}},
{"properties":{"libel":"Champagney","uic":"87185348","num":"001000","pk":"427+249","frevoy":"NO","nom":"Champagney","insee":"70120"},"type":"Feature","geometry":{"type":"Point","coordinates":[6.70148,47.70315]}},
{"properties":{"libel":"Bas-Évette","uic":"87184200","num":"001000","pk":"435+830","frevoy":"OO","nom":"Évette-Salbert","insee":"90042","info":"aussi bif. vers Giromagny ligne 055000"},"type":"Feature","geometry":{"type":"Point","coordinates":[6.80567,47.6814]}},
{"properties":{"libel":"Valdoie","uic":"87184218","num":"001000","pk":"438+837","frevoy":"NN","nom":"Valdoie","insee":"90099"},"type":"Feature","geometry":{"type":"Point","coordinates":[6.83755,47.66535]}},
{"properties":{"libel":"Trois-Chênes","uic":"87184242","num":"001000","pk":"440+891","frevoy":"NO","nom":"Belfort","insee":"90010"},"type":"Feature","geometry":{"type":"Point","coordinates":[6.8467,47.6472]}},
{"properties":{"libel":"Belfort","uic":"87184002","num":"001000","pk":"442+682","frevoy":"OO","nom":"Belfort","insee":"90010"},"type":"Feature","geometry":{"type":"Point","coordinates":[6.85476,47.63127]}},
{"properties":{"libel":"Chèvremont","uic":"87184259","num":"001000","pk":"448+463","frevoy":"NO","nom":"Chèvremont","insee":"90026"},"type":"Feature","geometry":{"type":"Point","coordinates":[6.92106,47.62168]}},
{"properties":{"libel":"Petit-Croix","uic":"87184267","num":"001000","pk":"454+270","frevoy":"NO","nom":"Montreux-Château","insee":"90071"},"type":"Feature","geometry":{"type":"Point","coordinates":[6.99427,47.60999]}},
{"properties":{"libel":"Montreux-Vieux","uic":"87184275","num":"001000","pk":"456+799","frevoy":"NO","nom":"Montreux-Vieux","insee":"68215"},"type":"Feature","geometry":{"type":"Point","coordinates":[7.02567,47.61778]}},
{"properties":{"libel":"Valdieu","uic":"87181081","num":"001000","pk":"459+586","frevoy":"NN","nom":"Valdieu-Lutran","insee":"68192"},"type":"Feature","geometry":{"type":"Point","coordinates":[7.05638,47.63121]}},
{"properties":{"libel":"Dannemarie","uic":"87182253","num":"001000","pk":"464+916","frevoy":"NO","nom":"Dannemarie","insee":"68068"},"type":"Feature","geometry":{"type":"Point","coordinates":[7.12471,47.62759]}},
{"properties":{"libel":"Ballersdorf","uic":"87181073","num":"001000","pk":"467+502","frevoy":"NN","nom":"Ballersdorf","insee":"68017"},"type":"Feature","geometry":{"type":"Point","coordinates":[7.15283,47.62038]}},
{"properties":{"libel":"Altkirch","uic":"87182238","num":"001000","pk":"474+231","frevoy":"OO","nom":"Altkirch","insee":"68004"},"type":"Feature","geometry":{"type":"Point","coordinates":[7.23918,47.62737]}},
{"properties":{"libel":"Walheim","uic":"87181065","num":"001000","pk":"477+334","frevoy":"NO","nom":"Walheim","insee":"68356"},"type":"Feature","geometry":{"type":"Point","coordinates":[7.26334,47.6418]}},
{"properties":{"libel":"Tagolsheim","uic":"87181057","num":"001000","pk":"478+808","frevoy":"NO","nom":"Tagolsheim","insee":"68332"},"type":"Feature","geometry":{"type":"Point","coordinates":[7.26419,47.65504]}},
{"properties":{"libel":"Illfurth","uic":"87182204","num":"001000","pk":"481+197","frevoy":"NO","nom":"Illfurth","insee":"68152"},"type":"Feature","geometry":{"type":"Point","coordinates":[7.26852,47.67627]}},
{"properties":{"libel":"Zillisheim","uic":"87182196","num":"001000","pk":"484+091","frevoy":"NO","nom":"Zillisheim","insee":"68384"},"type":"Feature","geometry":{"type":"Point","coordinates":[7.29465,47.69435]}},
{"properties":{"libel":"Flaxlanden","uic":"87181040","num":"001000","pk":"485+003","frevoy":"NO","nom":"Zillisheim","insee":"68384"},"type":"Feature","geometry":{"type":"Point","coordinates":[7.30462,47.69871]}},
{"properties":{"libel":"Brunstatt","uic":"87181032","num":"001000","pk":"487+500","frevoy":"NN","nom":"Brunstatt","insee":"68056"},"type":"Feature","geometry":{"type":"Point","coordinates":[7.31445,47.71996]}},
{"properties":{"libel":"Hasenrain","uic":"87181024","num":"001000","pk":"489+620","frevoy":"NO","nom":"Mulhouse","insee":"68224"},"type":"Feature","geometry":{"type":"Point","coordinates":[7.33038,47.73591]}},
{"properties":{"libel":"Mulhouse-Ville","uic":"87182063","num":"001000","pk":"490+900","frevoy":"OO","nom":"Mulhouse","insee":"68224"},"type":"Feature","geometry":{"type":"Point","coordinates":[7.34373,47.74199]}},
{"properties":{"libel":"Magenta","uic":"87281873","num":"001379","pk":"0+374","frevoy":"NO","nom":"Paris-10","insee":"75110"},"type":"Feature","geometry":{"type":"Point","coordinates":[2.35837,48.88034]}},
{"properties":{"libel":"Gretz-Armainvilliers","uic":"87116012","num":"002000","pk":"38+321","frevoy":"OO","nom":"Gretz-Armainvilliers","insee":"77215"},"type":"Feature","geometry":{"type":"Point","coordinates":[2.7293,48.74481]}},
{"properties":{"libel":"Tournan","uic":"87116210","num":"002000","pk":"40+764","frevoy":"OO","nom":"Tournan-en-Brie","insee":"77470"},"type":"Feature","geometry":{"type":"Point","coordinates":[2.75941,48.73933]}},
{"properties":{"libel":"Marles-en-Brie","uic":"87116228","num":"002000","pk":"49+048","frevoy":"OO","nom":"La Houssaye-en-Brie","insee":"77277"},"type":"Feature","geometry":{"type":"Point","coordinates":[2.86788,48.73421]}},
{"properties":{"libel":"La Houssaye-Crèvecoeur","uic":"87116236","num":"002000","pk":"51+622","frevoy":"NN","nom":"La Houssaye-en-Brie","insee":"77229"},"type":"Feature","geometry":{"type":"Point","coordinates":[2.8835,48.75447]}},
{"properties":{"libel":"Mortcerf","uic":"87116244","num":"002000","pk":"55+925","frevoy":"NO","nom":"Mortcerf","insee":"77318"},"type":"Feature","geometry":{"type":"Point","coordinates":[2.90753,48.78912]}},
{"properties":{"libel":"Dammartin-Tigeaux","uic":"87116251","num":"002000","pk":"58+871","frevoy":"NN","nom":"Dammartin-sur-Tigeaux","insee":"77154"},"type":"Feature","geometry":{"type":"Point","coordinates":[2.92565,48.81045]}},
{"properties":{"libel":"Guérard-La Celle-sur-Morin","uic":"87116269","num":"002000","pk":"61+167","frevoy":"NO","nom":"Guérard","insee":"77219"},"type":"Feature","geometry":{"type":"Point","coordinates":[2.95476,48.81044]}},
{"properties":{"libel":"Faremoutiers-Pommeuse","uic":"87116277","num":"002000","pk":"64+531","frevoy":"NO","nom":"Pommeuse","insee":"77371"},"type":"Feature","geometry":{"type":"Point","coordinates":[2.99326,48.80861]}},
{"properties":{"libel":"Mouroux","uic":"87116285","num":"002000","pk":"68+567","frevoy":"NO","nom":"Mouroux","insee":"77320"},"type":"Feature","geometry":{"type":"Point","coordinates":[3.04405,48.81347]}},
{"properties":{"libel":"Coulommiers","uic":"87116301","num":"002000","pk":"71+621","frevoy":"OO","nom":"Coulommiers","insee":"77131"},"type":"Feature","geometry":{"type":"Point","coordinates":[3.08197,48.80772]}},
{"properties":{"libel":"Chailly-Boissy-Le Châtel","uic":"87116343","num":"002000","pk":"77+200","frevoy":"NN","nom":"Chailly-en-Brie","insee":"77070"},"type":"Feature","geometry":{"type":"Point","coordinates":[3.15201,48.8143]}},
{"properties":{"libel":"Saint-Siméon","uic":"87116368","num":"002000","pk":"82+169","frevoy":"NN","nom":"Saint-Siméon","insee":"77436"},"type":"Feature","geometry":{"type":"Point","coordinates":[3.20875,48.79932]}},
{"properties":{"libel":"Jouy-sur-Morin-Le Marais","uic":"87116384","num":"002000","pk":"88+633","frevoy":"NN","nom":"Jouy-sur-Morin","insee":"77240"},"type":"Feature","geometry":{"type":"Point","coordinates":[3.27357,48.79071]}},
{"properties":{"libel":"La Ferté-Gaucher","uic":"87116392","num":"002000","pk":"91+033","frevoy":"NN","nom":"La Ferté-Gaucher","insee":"77182"},"type":"Feature","geometry":{"type":"Point","coordinates":[3.29766,48.78223]}},
{"properties":{"libel":"Lescherolles","uic":"87116426","num":"002000","pk":"94+912","frevoy":"NN","nom":"Lescherolles","insee":"77247"},"type":"Feature","geometry":{"type":"Point","coordinates":[3.34484,48.77274]}},
{"properties":{"libel":"Meilleray","uic":"87116442","num":"002000","pk":"101+069","frevoy":"NN","nom":"Villeneuve-la-Lionne","insee":"51625"},"type":"Feature","geometry":{"type":"Point","coordinates":[3.41737,48.78354]}},
{"properties":{"libel":"Joiselle","uic":"87116467","num":"002000","pk":"107+042","frevoy":"NN","nom":"Joiselle","insee":"51306"},"type":"Feature","geometry":{"type":"Point","coordinates":[3.48812,48.76643]}},
{"properties":{"libel":"Neuvy","uic":"87116475","num":"002000","pk":"111+095","frevoy":"NN","nom":"Neuvy","insee":"51402"},"type":"Feature","geometry":{"type":"Point","coordinates":[3.51533,48.74395]}},
{"properties":{"libel":"Esternay","uic":"87116483","num":"002000","pk":"115+500","frevoy":"ON","nom":"Esternay","insee":"51237"},"type":"Feature","geometry":{"type":"Point","coordinates":[3.56205,48.73095]}},
{"properties":{"libel":"Sézanne","uic":"87116541","num":"002000","pk":"131+721","frevoy":"ON","nom":"Sézanne","insee":"51535"},"type":"Feature","geometry":{"type":"Point","coordinates":[3.72894,48.71473]}},
{"properties":{"libel":"Longueville","uic":"87116137","num":"003000","pk":"88+176","frevoy":"OO","nom":"Longueville","insee":"77260"},"type":"Feature","geometry":{"type":"Point","coordinates":[3.24879,48.51478]}},
{"properties":{"libel":"Sainte-Colombe-Septveilles","uic":"87116178","num":"003000","pk":"90+100","frevoy":"NO","nom":"Sainte-Colombe","insee":"77404"},"type":"Feature","geometry":{"type":"Point","coordinates":[3.25571,48.52934]}},
{"properties":{"libel":"Champbenoist-Poigny","uic":"87115873","num":"003000","pk":"93+290","frevoy":"NO","nom":"Poigny","insee":"77368"},"type":"Feature","geometry":{"type":"Point","coordinates":[3.28715,48.54549]}},
{"properties":{"libel":"Provins","uic":"87116160","num":"003000","pk":"94+996","frevoy":"OO","nom":"Provins","insee":"77379"},"type":"Feature","geometry":{"type":"Point","coordinates":[3.30307,48.55562]}},
{"properties":{"libel":"Léchelle (Seine-et-Marne)","uic":"87116186","num":"003000","pk":"102+555","frevoy":"ON","nom":"Léchelle","insee":"77246"},"type":"Feature","geometry":{"type":"Point","coordinates":[3.3831,48.57953]}},
{"properties":{"libel":"Beauchery","uic":"87115899","num":"003000","pk":"106+796","frevoy":"NN","nom":"Beauchery-Saint-Martin","insee":"77026"},"type":"Feature","geometry":{"type":"Point","coordinates":[3.4054,48.61412]}},
{"properties":{"libel":"Villiers-Saint-Georges","uic":"87116194","num":"003000","pk":"110+858","frevoy":"ON","nom":"Villiers-Saint-Georges","insee":"77519"},"type":"Feature","geometry":{"type":"Point","coordinates":[3.41284,48.65019]}},
{"properties":{"libel":"Montceaux-Saint-Bon","uic":"87116202","num":"003000","pk":"116+792","frevoy":"NN","nom":"Montceaux-lès-Provins","insee":"77301"},"type":"Feature","geometry":{"type":"Point","coordinates":[3.45557,48.69161]}},
{"properties":{"libel":"Mézy","uic":"87116590","num":"004000","pk":"0+000","frevoy":"ON","nom":"Mézy-Moulins","insee":"02484"},"type":"Feature","geometry":{"type":"Point","coordinates":[3.50643,49.06673]}},
{"properties":{"libel":"Crézancy","uic":"87116798","num":"004000","pk":"2+075","frevoy":"NN","nom":"Crézancy","insee":"02239"},"type":"Feature","geometry":{"type":"Point","coordinates":[3.51598,49.0509]}},
{"properties":{"libel":"Condé-en-Brie","uic":"87116848","num":"004000","pk":"8+143","frevoy":"NN","nom":"Condé-en-Brie","insee":"02209"},"type":"Feature","geometry":{"type":"Point","coordinates":[3.55613,49.00525]}},
{"properties":{"libel":"Artonges","uic":"87115378","num":"004000","pk":"18+070","frevoy":"ON","nom":"Artonges","insee":"02458"},"type":"Feature","geometry":{"type":"Point","coordinates":[3.54234,48.9266]}},
{"properties":{"libel":"Montmirail","uic":"87116855","num":"004000","pk":"25+675","frevoy":"NN","nom":"Montmirail","insee":"51380"},"type":"Feature","geometry":{"type":"Point","coordinates":[3.53093,48.87297]}},
{"properties":{"libel":"Le Gault","uic":"87116871","num":"004000","pk":"35+794","frevoy":"NN","nom":"Le Gault-Soigny","insee":"51264"},"type":"Feature","geometry":{"type":"Point","coordinates":[3.58784,48.81368]}},
{"properties":{"libel":"Villenauxe","uic":"87116624","num":"004000","pk":"62+711","frevoy":"NN","nom":"Villenauxe-la-Grande","insee":"10420"},"type":"Feature","geometry":{"type":"Point","coordinates":[3.56435,48.58964]}},
{"properties":{"libel":"Champagne-Ardenne-TGV","uic":"87171926","num":"005000","pk":"113+767","frevoy":"NO","nom":"Bezannes","insee":"51058"},"type":"Feature","geometry":{"type":"Point","coordinates":[3.99569,49.21368]}},
{"properties":{"libel":"Meuse-TGV","uic":"87147322","num":"005000","pk":"213+572","frevoy":"NO","nom":"Les Trois-Domaines","insee":"55254"},"type":"Feature","geometry":{"type":"Point","coordinates":[5.27372,48.97851]}},
{"properties":{"libel":"Lorraine-TGV","uic":"87142109","num":"005000","pk":"281+324","frevoy":"NO","nom":"Louvigny","insee":"57422"},"type":"Feature","geometry":{"type":"Point","coordinates":[6.17329,48.948]}},
{"properties":{"libel":"Champagne-Ardenne-TGV","uic":"87171926","num":"005317","pk":"1+536","frevoy":"NO","nom":"Bezannes","insee":"51058"},"type":"Feature","geometry":{"type":"Point","coordinates":[3.99366,49.21456]}},
{"properties":{"libel":"Coolus","uic":"87117754","num":"006000","pk":"0+0xx","frevoy":"NN","nom":"Coolus","insee":"51168","info":"origine de Ligne_de_Coolus_à_Sens Point_ok"},"type":"Feature","geometry":{"type":"Point","coordinates":[4.35514,48.93231]}},
{"properties":{"libel":"Écury","uic":"87117755a","num":"006000","pk":"4+2xx","frevoy":"NN","nom":"Écury-sur-Coole","insee":"51227","info":"ajout?"},"type":"Feature","geometry":{"type":"Point","coordinates":[4.32927,48.8972]}},
{"properties":{"libel":"Nuisement","uic":"87174474","num":"006000","pk":"6+729","frevoy":"ON","nom":"Nuisement-sur-Coole","insee":"51409"},"type":"Feature","geometry":{"type":"Point","coordinates":[4.30955,48.8799]}},
{"properties":{"libel":"Bussy-Lettrée-Vatry","uic":"87174516","num":"006000","pk":"16+260","frevoy":"ON","nom":"Bussy-Lettrée","insee":"51099"},"type":"Feature","geometry":{"type":"Point","coordinates":[4.24805,48.80846]}},
{"properties":{"libel":"Sommesous","uic":"87174540","num":"006000","pk":"25+857","frevoy":"ON","nom":"Sommesous","insee":"51545"},"type":"Feature","geometry":{"type":"Point","coordinates":[4.19443,48.73638]}},
{"properties":{"libel":"Mailly-le-Camp","uic":"87174573","num":"006000","pk":"33+380","frevoy":"ON","nom":"Mailly-le-Camp","insee":"10216"},"type":"Feature","geometry":{"type":"Point","coordinates":[4.17883,48.67488]}},
{"properties":{"libel":"Herbisse","uic":"87118604","num":"006000","pk":"42+210","frevoy":"NN","nom":"Herbisse","insee":"10172"},"type":"Feature","geometry":{"type":"Point","coordinates":[4.10845,48.62481]}},
{"properties":{"libel":"Allibaudières","uic":"87118596","num":"006000","pk":"46+779","frevoy":"NN","nom":"Allibaudières","insee":"10004"},"type":"Feature","geometry":{"type":"Point","coordinates":[4.10288,48.58417]}},
{"properties":{"libel":"Arcis-sur-Aube","uic":"87118588","num":"006000","pk":"53+236","frevoy":"ON","nom":"Arcis-sur-Aube","insee":"10429"},"type":"Feature","geometry":{"type":"Point","coordinates":[4.12868,48.53273]}},
{"properties":{"libel":"Saint-Étienne-Nozay","uic":"87118570","num":"006000","pk":"58+297","frevoy":"NN","nom":"Saint-Étienne-sous-Barbuise","insee":"10338"},"type":"Feature","geometry":{"type":"Point","coordinates":[4.10495,48.49999]}},
{"properties":{"libel":"Montsuzain","uic":"87118562","num":"006000","pk":"65+193","frevoy":"NN","nom":"Montsuzain","insee":"10256"},"type":"Feature","geometry":{"type":"Point","coordinates":[4.12853,48.44118]}},
{"properties":{"libel":"Charmont","uic":"87118554","num":"006000","pk":"70+809","frevoy":"ON","nom":"Charmont-sous-Barbuise","insee":"10084"},"type":"Feature","geometry":{"type":"Point","coordinates":[4.17376,48.40321]}},
{"properties":{"libel":"Fontvannes","uic":"87118802","num":"006000","pk":"104+427","frevoy":"NN","nom":"Fontvannes","insee":"10156"},"type":"Feature","geometry":{"type":"Point","coordinates":[3.87704,48.27509]}},
{"properties":{"libel":"Estissac","uic":"87118810","num":"006000","pk":"110+278","frevoy":"ON","nom":"Estissac","insee":"10142"},"type":"Feature","geometry":{"type":"Point","coordinates":[3.80242,48.27429]}},
{"properties":{"libel":"Aix-en-Othe-Villemaur","uic":"87118828","num":"006000","pk":"117+463","frevoy":"NN","nom":"Villemaur-sur-Vanne","insee":"10003"},"type":"Feature","geometry":{"type":"Point","coordinates":[3.71793,48.24793]}},
{"properties":{"libel":"Vulaines-Rigny-le-Ferron","uic":"87118836","num":"006000","pk":"125+106","frevoy":"NN","nom":"Vulaines","insee":"10444"},"type":"Feature","geometry":{"type":"Point","coordinates":[3.62037,48.23177]}},
{"properties":{"libel":"Villeneuve-l'Archevêque","uic":"87118844","num":"006000","pk":"130+820","frevoy":"ON","nom":"Villeneuve-l'Archevêque","insee":"89261"},"type":"Feature","geometry":{"type":"Point","coordinates":[3.54753,48.23842]}},
{"properties":{"libel":"Chigy-Sièges","uic":"87118851","num":"006000","pk":"138+680","frevoy":"NN","nom":"Chigy","insee":"89411"},"type":"Feature","geometry":{"type":"Point","coordinates":[3.4643,48.20011]}},
{"properties":{"libel":"Theil-Cerisiers","uic":"87118869","num":"006000","pk":"143+572","frevoy":"NN","nom":"Pont-sur-Vanne","insee":"89471"},"type":"Feature","geometry":{"type":"Point","coordinates":[3.41171,48.17486]}},
{"properties":{"libel":"Malay-le-Grand","uic":"87118877","num":"006000","pk":"149+173","frevoy":"NN","nom":"Malay-le-Grand","insee":"89239"},"type":"Feature","geometry":{"type":"Point","coordinates":[3.33764,48.18063]}},
{"properties":{"libel":"Sens-Saint-Clément","uic":"87683011","num":"006000","pk":"154+804","frevoy":"NN","nom":"Sens","insee":"89387"},"type":"Feature","geometry":{"type":"Point","coordinates":[3.28019,48.20889]}},
{"properties":{"libel":"Fère-Champenoise","uic":"87174664","num":"007000","pk":"0+000","frevoy":"ON","nom":"Fère-Champenoise","insee":"51248"},"type":"Feature","geometry":{"type":"Point","coordinates":[3.98363,48.76242]}},
{"properties":{"libel":"Monswiller","uic":"87674176","num":"007000","pk":"0+459","frevoy":"NN","nom":"Fère-Champenoise","insee":"51248"},"type":"Feature","geometry":{"type":"Point","coordinates":[3.99146,48.76468]}},
{"properties":{"libel":"Lenharrée","uic":"87174178a","num":"007000","pk":"9+89x","frevoy":"NN","nom":"Lenharrée","insee":"51319","info":"ajout?"},"type":"Feature","geometry":{"type":"Point","coordinates":[4.10475,48.77]}},
{"properties":{"libel":"Sommesous","uic":"87174540","num":"007000","pk":"17+640","frevoy":"NN","nom":"Sommesous","insee":"51545","info":"ajout sur Ligne_de_Fère-Champenoise_à_Vitry-le-François Point_ok"},"type":"Feature","geometry":{"type":"Point","coordinates":[4.19435,48.73633]}},
{"properties":{"libel":"Poivres","uic":"87174597a","num":"007000","pk":"24+9xx","frevoy":"NN","nom":"Poivres","insee":"10293","info":"ajout?"},"type":"Feature","geometry":{"type":"Point","coordinates":[4.27529,48.70942]}},
{"properties":{"libel":"Sompuis","uic":"87174599","num":"007000","pk":"33+555","frevoy":"NN","nom":"Sompuis","insee":"51550"},"type":"Feature","geometry":{"type":"Point","coordinates":[4.37705,48.68869]}},
{"properties":{"libel":"Huiron","uic":"87174602a","num":"007000","pk":"46+2xx","frevoy":"NN","nom":"Huiron","insee":"51295","info":"ajout?"},"type":"Feature","geometry":{"type":"Point","coordinates":[4.53944,48.70344]}},
{"properties":{"libel":"Vitry-le-François","uic":"87174276","num":"007000","pk":"50+466","frevoy":"OO","nom":"Vitry-le-François","insee":"51649"},"type":"Feature","geometry":{"type":"Point","coordinates":[4.5876,48.71781]}},
{"properties":{"libel":"Avize","uic":"87174607","num":"010000","pk":"6+607","frevoy":"NN","nom":"Avize","insee":"51029"},"type":"Feature","geometry":{"type":"Point","coordinates":[4.02284,48.97509]}},
{"properties":{"libel":"Mesnil-sur-Oger","uic":"87174615","num":"010000","pk":"9+673","frevoy":"NN","nom":"Le Mesnil-sur-Oger","insee":"51367"},"type":"Feature","geometry":{"type":"Point","coordinates":[4.03197,48.94916]}},
{"properties":{"libel":"Vertus","uic":"87174623","num":"010000","pk":"15+784","frevoy":"NN","nom":"Vertus","insee":"51612"},"type":"Feature","geometry":{"type":"Point","coordinates":[4.00948,48.90254]}},
{"properties":{"libel":"Coligny (Marne)","uic":"87174649","num":"010000","pk":"23+136","frevoy":"ON","nom":"Val-des-Marais","insee":"51158"},"type":"Feature","geometry":{"type":"Point","coordinates":[3.97086,48.8508]}},
{"properties":{"libel":"Morains-le-Petit","uic":"87174656","num":"010000","pk":"27+400","frevoy":"NN","nom":"Val-des-Marais","insee":"51158"},"type":"Feature","geometry":{"type":"Point","coordinates":[3.98346,48.81311]}},
{"properties":{"libel":"Fère-Champenoise","uic":"87174664","num":"010000","pk":"33+507","frevoy":"ON","nom":"Fère-Champenoise","insee":"51248"},"type":"Feature","geometry":{"type":"Point","coordinates":[3.98271,48.76217]}},
{"properties":{"libel":"Connantre","uic":"87174698","num":"010000","pk":"39+072","frevoy":"ON","nom":"Connantre","insee":"51165"},"type":"Feature","geometry":{"type":"Point","coordinates":[3.92362,48.73153]}},
{"properties":{"libel":"Linthes-Linthelles-Pleurs","uic":"87174714","num":"010000","pk":"44+333","frevoy":"NN","nom":"Linthes","insee":"51324"},"type":"Feature","geometry":{"type":"Point","coordinates":[3.85316,48.72544]}},
{"properties":{"libel":"Sézanne","uic":"87116541","num":"010000","pk":"53+799","frevoy":"ON","nom":"Sézanne","insee":"51535"},"type":"Feature","geometry":{"type":"Point","coordinates":[3.72842,48.71443]}},
{"properties":{"libel":"Barbonne-Fayel","uic":"87116707","num":"010000","pk":"61+197","frevoy":"NN","nom":"Barbonne-Fayel","insee":"51036"},"type":"Feature","geometry":{"type":"Point","coordinates":[3.70538,48.65723]}},
{"properties":{"libel":"Saint-Quentin-le-Verger","uic":"87116715","num":"010000","pk":"66+835","frevoy":"NN","nom":"Saint-Quentin-le-Verger","insee":"51511"},"type":"Feature","geometry":{"type":"Point","coordinates":[3.7533,48.62155]}},
{"properties":{"libel":"Anglure","uic":"87116723","num":"010000","pk":"72+660","frevoy":"NN","nom":"Anglure","insee":"51009"},"type":"Feature","geometry":{"type":"Point","coordinates":[3.80229,48.58532]}},
{"properties":{"libel":"Troyes","uic":"87118000","num":"012000","pk":"166+193","frevoy":"OO","nom":"Troyes","insee":"10343"},"type":"Feature","geometry":{"type":"Point","coordinates":[4.09326,48.26796]}},
{"properties":{"libel":"Thennelières","uic":"87118745","num":"012000","pk":"176+711","frevoy":"NN","nom":"Thennelières","insee":"10375"},"type":"Feature","geometry":{"type":"Point","coordinates":[4.17647,48.28736]}},
{"properties":{"libel":"Rouilly-Geraudot","uic":"87118711","num":"012000","pk":"186+305","frevoy":"NN","nom":"Rouilly-Sacey","insee":"10328"},"type":"Feature","geometry":{"type":"Point","coordinates":[4.2851,48.32778]}},
{"properties":{"libel":"Piney","uic":"87118729","num":"012000","pk":"191+488","frevoy":"NN","nom":"Piney","insee":"10287"},"type":"Feature","geometry":{"type":"Point","coordinates":[4.33464,48.35822]}},
{"properties":{"libel":"Brevonnes","uic":"87118737","num":"012000","pk":"196+418","frevoy":"NN","nom":"Brévonnes","insee":"10061"},"type":"Feature","geometry":{"type":"Point","coordinates":[4.4008,48.35852]}},
{"properties":{"libel":"Brienne-le-Château","uic":"87118752","num":"012000","pk":"208+110","frevoy":"ON","nom":"Brienne-le-Château","insee":"10064"},"type":"Feature","geometry":{"type":"Point","coordinates":[4.53152,48.38891]}},
{"properties":{"libel":"Vallentigny-Maizières","uic":"87118778","num":"013000","pk":"0+045","frevoy":"NN","nom":"Vallentigny","insee":"10393"},"type":"Feature","geometry":{"type":"Point","coordinates":[4.58629,48.44145]}},
{"properties":{"libel":"Chavanges","uic":"87118786","num":"013000","pk":"7+732","frevoy":"ON","nom":"Chavanges","insee":"10094"},"type":"Feature","geometry":{"type":"Point","coordinates":[4.58606,48.50832]}},
{"properties":{"libel":"Gigny-Brandonvillers","uic":"87174771","num":"013000","pk":"17+614","frevoy":"NN","nom":"Gigny-Bussy","insee":"51080"},"type":"Feature","geometry":{"type":"Point","coordinates":[4.58416,48.5968]}},
{"properties":{"libel":"Arzillières-Saint-Rémy","uic":"87174763","num":"013000","pk":"22+827","frevoy":"NN","nom":"Arzillières-Neuville","insee":"51017"},"type":"Feature","geometry":{"type":"Point","coordinates":[4.59387,48.6431]}},
{"properties":{"libel":"Blaise-sous-Arzillières","uic":"87174755","num":"013000","pk":"25+953","frevoy":"NN","nom":"Blaise-sous-Arzillières","insee":"51066"},"type":"Feature","geometry":{"type":"Point","coordinates":[4.5872,48.66993]}},
{"properties":{"libel":"Vitry-le-François","uic":"87174276","num":"013000","pk":"33+052","frevoy":"OO","nom":"Vitry-le-François","insee":"51649"},"type":"Feature","geometry":{"type":"Point","coordinates":[4.58618,48.71764]}},
{"properties":{"libel":"Besançon-Franche-Comté-TGV","uic":"87300863","num":"014000","pk":"51+969","frevoy":"NO","nom":"Auxon-Dessus","insee":"25035"},"type":"Feature","geometry":{"type":"Point","coordinates":[5.95621,47.30877]}},
{"properties":{"libel":"Belfort-Montbéliard-TGV","uic":"87300822","num":"014000","pk":"133+858","frevoy":"NO","nom":"Meroux","insee":"90068"},"type":"Feature","geometry":{"type":"Point","coordinates":[6.89845,47.58602]}},
{"properties":{"libel":"Dienville","uic":"87118760","num":"015000","pk":"201+843","frevoy":"ON","nom":"Dienville","insee":"10123"},"type":"Feature","geometry":{"type":"Point","coordinates":[4.54502,48.34771]}},
{"properties":{"libel":"Brienne-le-Château","uic":"87118752","num":"015000","pk":"208+110","frevoy":"ON","nom":"Brienne-le-Château","insee":"10064"},"type":"Feature","geometry":{"type":"Point","coordinates":[4.53235,48.39605]}},
{"properties":{"libel":"Vallentigny-Maizières","uic":"87118778","num":"015000","pk":"214+701","frevoy":"NN","nom":"Vallentigny","insee":"10393"},"type":"Feature","geometry":{"type":"Point","coordinates":[4.58629,48.44145]}},
{"properties":{"libel":"Montier-en-Der","uic":"87175448","num":"015000","pk":"245+705","frevoy":"NN","nom":"Montier-en-Der","insee":"52331"},"type":"Feature","geometry":{"type":"Point","coordinates":[4.76819,48.47387]}},
{"properties":{"libel":"Wassy","uic":"87175513","num":"015000","pk":"259+824","frevoy":"NN","nom":"Wassy","insee":"52550"},"type":"Feature","geometry":{"type":"Point","coordinates":[4.94185,48.49456]}},
{"properties":{"libel":"Joinville","uic":"87175091","num":"015000","pk":"283+341","frevoy":"OO","nom":"Joinville","insee":"52250"},"type":"Feature","geometry":{"type":"Point","coordinates":[5.14356,48.44419]}},
{"properties":{"libel":"Poissons-Noncourt","uic":"87175083","num":"015000","pk":"291+194","frevoy":"NN","nom":"Poissons","insee":"52398"},"type":"Feature","geometry":{"type":"Point","coordinates":[5.22016,48.42638]}},
{"properties":{"libel":"Montier-en-Der","uic":"87175448","num":"016000","pk":"245+705","frevoy":"NN","nom":"Montier-en-Der","insee":"52331"},"type":"Feature","geometry":{"type":"Point","coordinates":[4.76815,48.47389]}},
{"properties":{"libel":"Voillecomte","uic":"87175430","num":"016000","pk":"253+244","frevoy":"NN","nom":"Voillecomte","insee":"52543"},"type":"Feature","geometry":{"type":"Point","coordinates":[4.84455,48.5087]}},
{"properties":{"libel":"Allichamps","uic":"87175422","num":"016000","pk":"259+664","frevoy":"NN","nom":"Louvemont","insee":"52294"},"type":"Feature","geometry":{"type":"Point","coordinates":[4.87786,48.55662]}},
{"properties":{"libel":"Saint-Dizier","uic":"87175000","num":"018000","pk":"234+308","frevoy":"OO","nom":"Saint-Dizier","insee":"52448"},"type":"Feature","geometry":{"type":"Point","coordinates":[4.96189,48.63862]}},
{"properties":{"libel":"Eclaron","uic":"87175406","num":"018000","pk":"245+499","frevoy":"NN","nom":"Éclaron-Braucourt-Sainte-Livière","insee":"52182"},"type":"Feature","geometry":{"type":"Point","coordinates":[4.88038,48.58404]}},
{"properties":{"libel":"Louvemont","uic":"87175505","num":"018000","pk":"250+676","frevoy":"NN","nom":"Louvemont","insee":"52294"},"type":"Feature","geometry":{"type":"Point","coordinates":[4.91995,48.54892]}},
{"properties":{"libel":"Wassy","uic":"87175513","num":"018000","pk":"257+609","frevoy":"NN","nom":"Wassy","insee":"52550"},"type":"Feature","geometry":{"type":"Point","coordinates":[4.94252,48.49408]}},
{"properties":{"libel":"Brousseval","uic":"87175539","num":"018000","pk":"259+320","frevoy":"NN","nom":"Brousseval","insee":"52079"},"type":"Feature","geometry":{"type":"Point","coordinates":[4.963,48.48869]}},
{"properties":{"libel":"Vaux-Montreuil","uic":"87175547","num":"018000","pk":"261+147","frevoy":"NN","nom":"Vaux-sur-Blaise","insee":"52510"},"type":"Feature","geometry":{"type":"Point","coordinates":[4.96559,48.47302]}},
{"properties":{"libel":"Dommartin-le-Franc","uic":"87175554","num":"018000","pk":"266+571","frevoy":"NN","nom":"Dommartin-le-Franc","insee":"52171"},"type":"Feature","geometry":{"type":"Point","coordinates":[4.95446,48.42898]}},
{"properties":{"libel":"Courcelles-sur-Blaise","uic":"87175562","num":"018000","pk":"268+875","frevoy":"NN","nom":"Courcelles-sur-Blaise","insee":"52149"},"type":"Feature","geometry":{"type":"Point","coordinates":[4.93501,48.41443]}},
{"properties":{"libel":"Dommartin-le-Saint-Père","uic":"87175570","num":"018000","pk":"271+348","frevoy":"NN","nom":"Dommartin-le-Saint-Père","insee":"52172"},"type":"Feature","geometry":{"type":"Point","coordinates":[4.91837,48.39529]}},
{"properties":{"libel":"Doulevant-le-Château","uic":"87175588","num":"018000","pk":"273+743","frevoy":"NN","nom":"Doulevant-le-Château","insee":"52178"},"type":"Feature","geometry":{"type":"Point","coordinates":[4.92767,48.37539]}},
{"properties":{"libel":"Sommelonne-Baudonvilliers","uic":"87175349","num":"019000","pk":"19+320","frevoy":"NN","nom":"Sommelonne","insee":"55494"},"type":"Feature","geometry":{"type":"Point","coordinates":[5.02265,48.68523]}},
{"properties":{"libel":"Saint-Dizier","uic":"87175000","num":"019000","pk":"27+718","frevoy":"OO","nom":"Saint-Dizier","insee":"52448"},"type":"Feature","geometry":{"type":"Point","coordinates":[4.95108,48.64175]}},
{"properties":{"libel":"Blesme-Haussignemont","uic":"87174326","num":"020000","pk":"217+109","frevoy":"NN","nom":"Haussignémont","insee":"51284"},"type":"Feature","geometry":{"type":"Point","coordinates":[4.75291,48.72151]}},
{"properties":{"libel":"Saint-Vrain","uic":"87175232","num":"020000","pk":"223+500","frevoy":"NN","nom":"Saint-Vrain","insee":"51521"},"type":"Feature","geometry":{"type":"Point","coordinates":[4.82962,48.69761]}},
{"properties":{"libel":"Vouillers","uic":"87175224","num":"020000","pk":"225+512","frevoy":"NN","nom":"Vouillers","insee":"51654"},"type":"Feature","geometry":{"type":"Point","coordinates":[4.851,48.68688]}},
{"properties":{"libel":"Saint-Eulien","uic":"87175216","num":"020000","pk":"227+164","frevoy":"NN","nom":"Saint-Eulien","insee":"51478"},"type":"Feature","geometry":{"type":"Point","coordinates":[4.86851,48.67805]}},
{"properties":{"libel":"Villiers-en-Lieu","uic":"87175208","num":"020000","pk":"229+923","frevoy":"NN","nom":"Villiers-en-Lieu","insee":"52534"},"type":"Feature","geometry":{"type":"Point","coordinates":[4.8977,48.66324]}},
{"properties":{"libel":"Saint-Dizier","uic":"87175000","num":"020000","pk":"234+308","frevoy":"OO","nom":"Saint-Dizier","insee":"52448"},"type":"Feature","geometry":{"type":"Point","coordinates":[4.94693,48.64286]}},
{"properties":{"libel":"Marnaval","uic":"87175190","num":"020000","pk":"237+929","frevoy":"NN","nom":"Saint-Dizier","insee":"52448"},"type":"Feature","geometry":{"type":"Point","coordinates":[4.99292,48.62812]}},
{"properties":{"libel":"Ancerville-Guë","uic":"87175166","num":"020000","pk":"239+832","frevoy":"ON","nom":"Ancerville","insee":"55010"},"type":"Feature","geometry":{"type":"Point","coordinates":[5.01123,48.61622]}},
{"properties":{"libel":"Eurville-Bienville","uic":"87175141","num":"020000","pk":"244+654","frevoy":"OO","nom":"Eurville-Bienville","insee":"52194"},"type":"Feature","geometry":{"type":"Point","coordinates":[5.04475,48.58231]}},
{"properties":{"libel":"Bayard","uic":"87175133","num":"020000","pk":"249+265","frevoy":"OO","nom":"Bayard-sur-Marne","insee":"52265"},"type":"Feature","geometry":{"type":"Point","coordinates":[5.07685,48.55114]}},
{"properties":{"libel":"Chevillon","uic":"87175117","num":"020000","pk":"253+515","frevoy":"OO","nom":"Chevillon","insee":"52123"},"type":"Feature","geometry":{"type":"Point","coordinates":[5.11192,48.52414]}},
{"properties":{"libel":"Curel","uic":"87175109","num":"020000","pk":"257+654","frevoy":"NN","nom":"Curel","insee":"52118"},"type":"Feature","geometry":{"type":"Point","coordinates":[5.13096,48.48959]}},
{"properties":{"libel":"Joinville","uic":"87175091","num":"020000","pk":"263+576","frevoy":"OO","nom":"Joinville","insee":"52250"},"type":"Feature","geometry":{"type":"Point","coordinates":[5.14411,48.44434]}},
{"properties":{"libel":"Fronville-Saint-Urbain","uic":"87175075","num":"020000","pk":"268+656","frevoy":"NO","nom":"Fronville","insee":"52212"},"type":"Feature","geometry":{"type":"Point","coordinates":[5.15613,48.40073]}},
{"properties":{"libel":"Donjeux","uic":"87142273","num":"020000","pk":"272+696","frevoy":"NO","nom":"Donjeux","insee":"52175"},"type":"Feature","geometry":{"type":"Point","coordinates":[5.14849,48.36612]}},
{"properties":{"libel":"Gudmont","uic":"87142265","num":"020000","pk":"276+339","frevoy":"OO","nom":"Gudmont-Villiers","insee":"52230"},"type":"Feature","geometry":{"type":"Point","coordinates":[5.14098,48.33834]}},
{"properties":{"libel":"Froncles-Buxières","uic":"87142240","num":"020000","pk":"281+067","frevoy":"NO","nom":"Froncles","insee":"52211"},"type":"Feature","geometry":{"type":"Point","coordinates":[5.14156,48.29677]}},
{"properties":{"libel":"Vignory","uic":"87142232","num":"020000","pk":"284+634","frevoy":"OO","nom":"Vignory","insee":"52547"},"type":"Feature","geometry":{"type":"Point","coordinates":[5.12417,48.27058]}},
{"properties":{"libel":"Vraincourt-Viéville","uic":"87143024","num":"020000","pk":"288+521","frevoy":"NO","nom":"Vraincourt","insee":"52548"},"type":"Feature","geometry":{"type":"Point","coordinates":[5.12389,48.23688]}},
{"properties":{"libel":"Bologne","uic":"87142224","num":"020000","pk":"292+976","frevoy":"OO","nom":"Bologne","insee":"52058"},"type":"Feature","geometry":{"type":"Point","coordinates":[5.13444,48.19872]}},
{"properties":{"libel":"Marault","uic":"87143016","num":"020000","pk":"295+411","frevoy":"NN","nom":"Bologne","insee":"52058"},"type":"Feature","geometry":{"type":"Point","coordinates":[5.11333,48.18202]}},
{"properties":{"libel":"Jonchery","uic":"87142216","num":"020000","pk":"301+159","frevoy":"NN","nom":"Jonchery","insee":"52251"},"type":"Feature","geometry":{"type":"Point","coordinates":[5.09022,48.13401]}},
{"properties":{"libel":"Chaumont","uic":"87142000","num":"020000","pk":"306+425","frevoy":"OO","nom":"Chaumont","insee":"52121"},"type":"Feature","geometry":{"type":"Point","coordinates":[5.10907,48.11193]}},
{"properties":{"libel":"Bologne","uic":"87142224","num":"026000","pk":"0+000","frevoy":"OO","nom":"Bologne","insee":"52058"},"type":"Feature","geometry":{"type":"Point","coordinates":[5.13453,48.19865]}},
{"properties":{"libel":"Briaucourt","uic":"87143032","num":"026000","pk":"6+188","frevoy":"NN","nom":"Briaucourt","insee":"52075"},"type":"Feature","geometry":{"type":"Point","coordinates":[5.2072,48.21199]}},
{"properties":{"libel":"Chantraines","uic":"87143040","num":"026000","pk":"9+265","frevoy":"NN","nom":"Chantraines","insee":"52107"},"type":"Feature","geometry":{"type":"Point","coordinates":[5.24651,48.22053]}},
{"properties":{"libel":"Andelot (Haute-Marne)","uic":"87142281","num":"026000","pk":"14+907","frevoy":"NN","nom":"Andelot-Blancheville","insee":"52008"},"type":"Feature","geometry":{"type":"Point","coordinates":[5.30876,48.24494]}},
{"properties":{"libel":"Rimaucourt","uic":"87142299","num":"026000","pk":"17+926","frevoy":"ON","nom":"Rimaucourt","insee":"52423"},"type":"Feature","geometry":{"type":"Point","coordinates":[5.33284,48.26386]}},
{"properties":{"libel":"Manois","uic":"87142307","num":"026000","pk":"20+809","frevoy":"ON","nom":"Manois","insee":"52306"},"type":"Feature","geometry":{"type":"Point","coordinates":[5.3647,48.27419]}},
{"properties":{"libel":"Saint-Blin","uic":"87142315","num":"026000","pk":"26+622","frevoy":"NN","nom":"Vesaignes-sous-Lafauche","insee":"52517"},"type":"Feature","geometry":{"type":"Point","coordinates":[5.43688,48.26629]}},
{"properties":{"libel":"Prez-sous-Lafauche","uic":"87142323","num":"026000","pk":"33+431","frevoy":"NN","nom":"Liffol-le-Petit","insee":"52289"},"type":"Feature","geometry":{"type":"Point","coordinates":[5.51484,48.29074]}},
{"properties":{"libel":"Liffol-le-Grand","uic":"87142331","num":"026000","pk":"39+367","frevoy":"NN","nom":"Liffol-le-Grand","insee":"88270"},"type":"Feature","geometry":{"type":"Point","coordinates":[5.58691,48.31385]}},
{"properties":{"libel":"Neufchâteau","uic":"87141291","num":"026000","pk":"48+782","frevoy":"OO","nom":"Neufchâteau","insee":"88321"},"type":"Feature","geometry":{"type":"Point","coordinates":[5.69005,48.35823]}},
{"properties":{"libel":"Coussey","uic":"87141341","num":"026000","pk":"55+146","frevoy":"ON","nom":"Coussey","insee":"88118","info":"twin better"},"type":"Feature","geometry":{"type":"Point","coordinates":[5.68496,48.40721]}},
{"properties":{"libel":"Domrémy-la-Pucelle","uic":"87141366","num":"026000","pk":"60+090","frevoy":"NN","nom":"Maxey-sur-Meuse","insee":"88293"},"type":"Feature","geometry":{"type":"Point","coordinates":[5.69526,48.44811]}},
{"properties":{"libel":"Maxey-sur-Vaise","uic":"87175885","num":"026000","pk":"73+175","frevoy":"NN","nom":"Maxey-sur-Vaise","insee":"55328"},"type":"Feature","geometry":{"type":"Point","coordinates":[5.67256,48.53783]}},
{"properties":{"libel":"Burey-en-Vaux","uic":"87175877","num":"026000","pk":"76+000","frevoy":"NN","nom":"Burey-en-Vaux","insee":"55088"},"type":"Feature","geometry":{"type":"Point","coordinates":[5.67182,48.56205]}},
{"properties":{"libel":"Vaucouleurs","uic":"87175851","num":"026000","pk":"81+135","frevoy":"NN","nom":"Vaucouleurs","insee":"55533"},"type":"Feature","geometry":{"type":"Point","coordinates":[5.66688,48.60607]}},
{"properties":{"libel":"Saint-Germain-sur-Meuse","uic":"87175836","num":"026000","pk":"88+250","frevoy":"ON","nom":"Saint-Germain-sur-Meuse","insee":"55456"},"type":"Feature","geometry":{"type":"Point","coordinates":[5.70066,48.6517]}},
{"properties":{"libel":"Pagny-sur-Meuse","uic":"87175828","num":"026000","pk":"94+920","frevoy":"OO","nom":"Pagny-sur-Meuse","insee":"55398"},"type":"Feature","geometry":{"type":"Point","coordinates":[5.73549,48.69607]}},
{"properties":{"libel":"Nançois-Tronville","uic":"87175067","num":"027000","pk":"0+000","frevoy":"OO","nom":"Nançois-sur-Ornain","insee":"55519"},"type":"Feature","geometry":{"type":"Point","coordinates":[5.29138,48.71787]}},
{"properties":{"libel":"Ligny","uic":"87175323","num":"027000","pk":"4+412","frevoy":"ON","nom":"Ligny-en-barrois","insee":"55291"},"type":"Feature","geometry":{"type":"Point","coordinates":[5.32068,48.68609]}},
{"properties":{"libel":"Menaucourt","uic":"87175364","num":"027000","pk":"9+858","frevoy":"NN","nom":"Menaucourt","insee":"55332"},"type":"Feature","geometry":{"type":"Point","coordinates":[5.35599,48.64435]}},
{"properties":{"libel":"Laneuville-Saint-Joire","uic":"87175497","num":"027000","pk":"17+606","frevoy":"NN","nom":"Tréveray","insee":"55516"},"type":"Feature","geometry":{"type":"Point","coordinates":[5.40165,48.59991]}},
{"properties":{"libel":"Gondrecourt-le-Château","uic":"87175414","num":"027000","pk":"34+989","frevoy":"ON","nom":"Gondrecourt-le-Château","insee":"55215"},"type":"Feature","geometry":{"type":"Point","coordinates":[5.5067,48.50913]}},
{"properties":{"libel":"Neufchâteau","uic":"87141291","num":"027000","pk":"67+716","frevoy":"OO","nom":"Neufchâteau","insee":"88321"},"type":"Feature","geometry":{"type":"Point","coordinates":[5.67849,48.35385]}},
{"properties":{"libel":"Neufchâteau","uic":"87141291","num":"030000","pk":"48+782","frevoy":"OO","nom":"Neufchâteau","insee":"88321"},"type":"Feature","geometry":{"type":"Point","coordinates":[5.69156,48.35945]}},
{"properties":{"libel":"Certilleux","uic":"87674010","num":"030000","pk":"56+303","frevoy":"NN","nom":"Certilleux","insee":"88083"},"type":"Feature","geometry":{"type":"Point","coordinates":[5.71945,48.31272]}},
{"properties":{"libel":"Aulnois-Bulgneville","uic":"87144378","num":"030000","pk":"64+679","frevoy":"NN","nom":"Aulnois","insee":"88017"},"type":"Feature","geometry":{"type":"Point","coordinates":[5.79276,48.2613]}},
{"properties":{"libel":"Châtenois-Dolaincourt","uic":"87144360","num":"030000","pk":"70+475","frevoy":"ON","nom":"Châtenois","insee":"88095"},"type":"Feature","geometry":{"type":"Point","coordinates":[5.8389,48.30162]}},
{"properties":{"libel":"Gironcourt-Houécourt","uic":"87144352","num":"030000","pk":"77+207","frevoy":"ON","nom":"Gironcourt-sur-Vraine","insee":"88206"},"type":"Feature","geometry":{"type":"Point","coordinates":[5.92148,48.31045]}},
{"properties":{"libel":"Baudricourt","uic":"87144337","num":"030000","pk":"86+952","frevoy":"NN","nom":"Rouvres-en-Xaintois","insee":"88400"},"type":"Feature","geometry":{"type":"Point","coordinates":[6.04568,48.30838]}},
{"properties":{"libel":"Mirecourt","uic":"87144212","num":"030000","pk":"94+156","frevoy":"NO","nom":"Mirecourt","insee":"88304"},"type":"Feature","geometry":{"type":"Point","coordinates":[6.12899,48.29962]}},
{"properties":{"libel":"Hymont-Mattaincourt","uic":"87144220","num":"030000","pk":"97+891","frevoy":"NO","nom":"Hymont","insee":"88246"},"type":"Feature","geometry":{"type":"Point","coordinates":[6.14016,48.27074]}},
{"properties":{"libel":"Velotte-et-Tatignécourt","uic":"87146043","num":"030000","pk":"100+530","frevoy":"NN","nom":"Velotte-et-Tatignécourt","insee":"88499"},"type":"Feature","geometry":{"type":"Point","coordinates":[6.16949,48.25967]}},
{"properties":{"libel":"Racécourt","uic":"87146035","num":"030000","pk":"102+222","frevoy":"NN","nom":"Racécourt","insee":"88365","info":"exemple de Halte"},"type":"Feature","geometry":{"type":"Point","coordinates":[6.18841,48.25179]}},
{"properties":{"libel":"Dompaire","uic":"87144774","num":"030000","pk":"107+095","frevoy":"NN","nom":"Dompaire","insee":"88151"},"type":"Feature","geometry":{"type":"Point","coordinates":[6.22741,48.21918]}},
{"properties":{"libel":"Hennecourt","uic":"87146027","num":"030000","pk":"111+429","frevoy":"NN","nom":"Hennecourt","insee":"88237"},"type":"Feature","geometry":{"type":"Point","coordinates":[6.285,48.21824]}},
{"properties":{"libel":"Bocquegney","uic":"87146019","num":"030000","pk":"113+206","frevoy":"NN","nom":"Bocquegney","insee":"88063"},"type":"Feature","geometry":{"type":"Point","coordinates":[6.30864,48.21642]}},
{"properties":{"libel":"Darnieulles-Uxegney","uic":"87144741","num":"030000","pk":"119+238","frevoy":"NN","nom":"Uxegney","insee":"88126"},"type":"Feature","geometry":{"type":"Point","coordinates":[6.36569,48.19313]}},
{"properties":{"libel":"Épinal","uic":"87144006","num":"030000","pk":"126+801","frevoy":"OO","nom":"Épinal","insee":"88160"},"type":"Feature","geometry":{"type":"Point","coordinates":[6.44165,48.17783]}},
{"properties":{"libel":"Celsoy-Plesnoy","uic":"87142356","num":"032000","pk":"10+738","frevoy":"NN","nom":"Marcilly-en-Bassigny","insee":"52311"},"type":"Feature","geometry":{"type":"Point","coordinates":[5.50716,47.9027]}},
{"properties":{"libel":"Andilly","uic":"87142364","num":"032000","pk":"11+833","frevoy":"NN","nom":"Andilly-en-Bassigny","insee":"52009"},"type":"Feature","geometry":{"type":"Point","coordinates":[5.50581,47.91212]}},
{"properties":{"libel":"Avrecourt","uic":"87142372","num":"032000","pk":"18+368","frevoy":"NN","nom":"Val-de-Meuse","insee":"52033"},"type":"Feature","geometry":{"type":"Point","coordinates":[5.53431,47.96629]}},
{"properties":{"libel":"Meuse-Montigny-le-Roi","uic":"87142380","num":"032000","pk":"21+621","frevoy":"NN","nom":"Val-de-Meuse","insee":"52332"},"type":"Feature","geometry":{"type":"Point","coordinates":[5.54911,47.99167]}},
{"properties":{"libel":"Lécourt","uic":"87142398","num":"032000","pk":"25+491","frevoy":"NN","nom":"Val-de-Meuse","insee":"52332"},"type":"Feature","geometry":{"type":"Point","coordinates":[5.56008,48.0208]}},
{"properties":{"libel":"Merrey","uic":"87142406","num":"032000","pk":"30+371","frevoy":"OO","nom":"Merrey","insee":"52320"},"type":"Feature","geometry":{"type":"Point","coordinates":[5.59485,48.054]}},
{"properties":{"libel":"Breuvannes","uic":"87142414","num":"032000","pk":"36+358","frevoy":"NN","nom":"Breuvannes-en-Bassigny","insee":"52074"},"type":"Feature","geometry":{"type":"Point","coordinates":[5.59896,48.09843]}},
{"properties":{"libel":"Levécourt","uic":"87142422","num":"032000","pk":"42+602","frevoy":"NN","nom":"Levécourt","insee":"52287"},"type":"Feature","geometry":{"type":"Point","coordinates":[5.56001,48.14361]}},
{"properties":{"libel":"Bourmont","uic":"87142448","num":"032000","pk":"49+768","frevoy":"NN","nom":"Bourmont","insee":"52064"},"type":"Feature","geometry":{"type":"Point","coordinates":[5.58641,48.20138]}},
{"properties":{"libel":"Harréville-les-Chanteurs","uic":"87142463","num":"032000","pk":"58+291","frevoy":"NN","nom":"Harréville-les-Chanteurs","insee":"52237"},"type":"Feature","geometry":{"type":"Point","coordinates":[5.63924,48.26496]}},
{"properties":{"libel":"Bazoilles-sur-Meuse","uic":"87142471","num":"032000","pk":"63+222","frevoy":"NN","nom":"Bazoilles-sur-Meuse","insee":"88044"},"type":"Feature","geometry":{"type":"Point","coordinates":[5.66249,48.30326]}},
{"properties":{"libel":"Neufchâteau","uic":"87141291","num":"032000","pk":"70+859","frevoy":"OO","nom":"Neufchâteau","insee":"88321"},"type":"Feature","geometry":{"type":"Point","coordinates":[5.69091,48.35853]}},
{"properties":{"libel":"Soulosse","uic":"87141259","num":"032000","pk":"76+114","frevoy":"NN","nom":"Coussey","insee":"88118"},"type":"Feature","geometry":{"type":"Point","coordinates":[5.70163,48.39931]}},
{"properties":{"libel":"Ruppes","uic":"87141192","num":"032000","pk":"85+128","frevoy":"NN","nom":"Ruppes","insee":"88407"},"type":"Feature","geometry":{"type":"Point","coordinates":[5.77337,48.46024]}},
{"properties":{"libel":"Punerot","uic":"87141176","num":"032000","pk":"88+595","frevoy":"NN","nom":"Punerot","insee":"88363"},"type":"Feature","geometry":{"type":"Point","coordinates":[5.80478,48.48252]}},
{"properties":{"libel":"Barisey-la-Côte","uic":"87141754","num":"032000","pk":"94+938","frevoy":"NN","nom":"Barisey-au-Plain","insee":"54046"},"type":"Feature","geometry":{"type":"Point","coordinates":[5.84005,48.53361]}},
{"properties":{"libel":"Bulligny-Crezilles","uic":"87141739","num":"032000","pk":"100+854","frevoy":"NN","nom":"Bulligny","insee":"54105"},"type":"Feature","geometry":{"type":"Point","coordinates":[5.8612,48.58212]}},
{"properties":{"libel":"Blénod-lès-Toul","uic":"87141721","num":"032000","pk":"102+848","frevoy":"NN","nom":"Blénod-lès-Toul","insee":"54080"},"type":"Feature","geometry":{"type":"Point","coordinates":[5.85068,48.59846]}},
{"properties":{"libel":"Domgermain","uic":"87141705","num":"032000","pk":"108+054","frevoy":"NN","nom":"Domgermain","insee":"54162"},"type":"Feature","geometry":{"type":"Point","coordinates":[5.8364,48.64356]}},
{"properties":{"libel":"Toul","uic":"87141044","num":"032000","pk":"114+011","frevoy":"OO","nom":"Écrouves","insee":"54528"},"type":"Feature","geometry":{"type":"Point","coordinates":[5.87706,48.67841]}},
{"properties":{"libel":"Langres","uic":"87142091","num":"033000","pk":"0+000","frevoy":"OO","nom":"Langres","insee":"52269"},"type":"Feature","geometry":{"type":"Point","coordinates":[5.33612,47.88206]}},
{"properties":{"libel":"Charmes (Haute-Marne)","uic":"87143123","num":"033000","pk":"4+905","frevoy":"NN","nom":"Charmes","insee":"52108","info":"twin better coordinates"},"type":"Feature","geometry":{"type":"Point","coordinates":[5.35063,47.91129]}},
{"properties":{"libel":"Bannes","uic":"87143115","num":"033000","pk":"7+565","frevoy":"NN","nom":"Bannes","insee":"52037","info":"twin better coordinates"},"type":"Feature","geometry":{"type":"Point","coordinates":[5.38377,47.90818]}},
{"properties":{"libel":"Neuilly-l'Évêque","uic":"87142349","num":"033000","pk":"12+023","frevoy":"NN","nom":"Neuilly-l'Évêque","insee":"52348","info":"twin better coordinates"},"type":"Feature","geometry":{"type":"Point","coordinates":[5.44246,47.91067]}},
{"properties":{"libel":"Andilly","uic":"87142364","num":"033000","pk":"17+129","frevoy":"NN","nom":"Andilly-en-Bassigny","insee":"52009"},"type":"Feature","geometry":{"type":"Point","coordinates":[5.50615,47.91255]}},
{"properties":{"libel":"Merrey","uic":"87142406","num":"035000","pk":"30+371","frevoy":"OO","nom":"Merrey","insee":"52320"},"type":"Feature","geometry":{"type":"Point","coordinates":[5.60418,48.05883]}},
{"properties":{"libel":"Colombey-lès-Choiseul","uic":"87142489","num":"035000","pk":"33+030","frevoy":"NN","nom":"Breuvannes-en-Bassigny","insee":"52074"},"type":"Feature","geometry":{"type":"Point","coordinates":[5.6216,48.06885]}},
{"properties":{"libel":"Damblain","uic":"87142497","num":"035000","pk":"36+941","frevoy":"NO","nom":"Damblain","insee":"88123"},"type":"Feature","geometry":{"type":"Point","coordinates":[5.65635,48.09381]}},
{"properties":{"libel":"Rozières-sur-Mouzon","uic":"87144311","num":"035000","pk":"42+056","frevoy":"NO","nom":"Rozières-sur-Mouzon","insee":"88404"},"type":"Feature","geometry":{"type":"Point","coordinates":[5.70553,48.12091]}},
{"properties":{"libel":"Lamarche","uic":"87144303","num":"035000","pk":"47+909","frevoy":"NO","nom":"Lamarche","insee":"88258"},"type":"Feature","geometry":{"type":"Point","coordinates":[5.76039,48.09028]}},
{"properties":{"libel":"Martigny-les-Bains","uic":"87144295","num":"035000","pk":"53+597","frevoy":"NO","nom":"Martigny-les-Bains","insee":"88289"},"type":"Feature","geometry":{"type":"Point","coordinates":[5.82563,48.10884]}},
{"properties":{"libel":"Contrexéville","uic":"87144287","num":"035000","pk":"63+306","frevoy":"OO","nom":"Contrexéville","insee":"88114"},"type":"Feature","geometry":{"type":"Point","coordinates":[5.8906,48.1796]}},
{"properties":{"libel":"Vittel","uic":"87144279","num":"035000","pk":"68+668","frevoy":"OO","nom":"Vittel","insee":"88516"},"type":"Feature","geometry":{"type":"Point","coordinates":[5.94198,48.20256]}},
{"properties":{"libel":"Haréville-sous-Montfort","uic":"87146209","num":"035000","pk":"73+051","frevoy":"NN","nom":"Haréville","insee":"88231"},"type":"Feature","geometry":{"type":"Point","coordinates":[5.99581,48.2086]}},
{"properties":{"libel":"Remoncourt","uic":"87144253","num":"035000","pk":"77+136","frevoy":"NN","nom":"Remoncourt","insee":"88385"},"type":"Feature","geometry":{"type":"Point","coordinates":[6.04829,48.21479]}},
{"properties":{"libel":"Rozerotte","uic":"87146191","num":"035000","pk":"81+260","frevoy":"NN","nom":"Rozerotte","insee":"88403"},"type":"Feature","geometry":{"type":"Point","coordinates":[6.08491,48.24062]}},
{"properties":{"libel":"Bazoilles-devant-Hymont","uic":"87146183","num":"035000","pk":"83+330","frevoy":"NN","nom":"Bazoilles-et-Ménil","insee":"88043"},"type":"Feature","geometry":{"type":"Point","coordinates":[6.1068,48.25075]}},
{"properties":{"libel":"Hymont-Mattaincourt","uic":"87144220","num":"035000","pk":"88+311","frevoy":"NO","nom":"Hymont","insee":"88246"},"type":"Feature","geometry":{"type":"Point","coordinates":[6.14659,48.27045]}},
{"properties":{"libel":"Toul","uic":"87141044","num":"039000","pk":"0+000","frevoy":"OO","nom":"Écrouves","insee":"54528"},"type":"Feature","geometry":{"type":"Point","coordinates":[5.88508,48.68063]}},
{"properties":{"libel":"Chaudeney-sur-moselle","uic":"87141689","num":"039000","pk":"5+012","frevoy":"NN","nom":"Chaudeney-sur-Moselle","insee":"54122"},"type":"Feature","geometry":{"type":"Point","coordinates":[5.90816,48.64901]}},
{"properties":{"libel":"Maron","uic":"87141671","num":"039000","pk":"17+368","frevoy":"NN","nom":"Maron","insee":"54352"},"type":"Feature","geometry":{"type":"Point","coordinates":[6.04366,48.63699]}},
{"properties":{"libel":"Chaligny-Neuves-Maisons","uic":"87141515","num":"039000","pk":"22+403","frevoy":"NN","nom":"Neuves-Maisons","insee":"54397"},"type":"Feature","geometry":{"type":"Point","coordinates":[6.09954,48.61355]}},
{"properties":{"libel":"Neuves-Maisons","uic":"87141507","num":"039000","pk":"23+280","frevoy":"NO","nom":"Neuves-Maisons","insee":"54397"},"type":"Feature","geometry":{"type":"Point","coordinates":[6.10896,48.61485]}},
{"properties":{"libel":"Ville-en-Vermois","uic":"87111732","num":"039000","pk":"34+708","frevoy":"NN","nom":"Ville-en-Vermois","insee":"54571"},"type":"Feature","geometry":{"type":"Point","coordinates":[6.25636,48.61174]}},
{"properties":{"libel":"Rosières-aux-Salines","uic":"87141127","num":"039000","pk":"42+919","frevoy":"NO","nom":"Dombasle-sur-Meurthe","insee":"54159"},"type":"Feature","geometry":{"type":"Point","coordinates":[6.3504,48.60534]}},
{"properties":{"libel":"Jarville-la-Malgrange","uic":"87141010","num":"040000","pk":"0+227","frevoy":"OO","nom":"Jarville-la-Malgrange","insee":"54274"},"type":"Feature","geometry":{"type":"Point","coordinates":[6.19802,48.67222]}},
{"properties":{"libel":"Houdemont","uic":"87141473","num":"040000","pk":"4+166","frevoy":"OO","nom":"Houdemont","insee":"54265"},"type":"Feature","geometry":{"type":"Point","coordinates":[6.17975,48.64518]}},
{"properties":{"libel":"Ludres","uic":"87141481","num":"040000","pk":"7+177","frevoy":"NO","nom":"Ludres","insee":"54328"},"type":"Feature","geometry":{"type":"Point","coordinates":[6.16995,48.62155]}},
{"properties":{"libel":"Messein","uic":"87141499","num":"040000","pk":"9+962","frevoy":"NO","nom":"Messein","insee":"54366"},"type":"Feature","geometry":{"type":"Point","coordinates":[6.13764,48.613]}},
{"properties":{"libel":"Neuves-Maisons","uic":"87141507","num":"040000","pk":"12+193","frevoy":"NO","nom":"Neuves-Maisons","insee":"54397"},"type":"Feature","geometry":{"type":"Point","coordinates":[6.10795,48.61485]}},
{"properties":{"libel":"Pont-Saint-Vincent","uic":"87141523","num":"040000","pk":"13+751","frevoy":"OO","nom":"Pont-Saint-Vincent","insee":"54432"},"type":"Feature","geometry":{"type":"Point","coordinates":[6.10344,48.6021]}},
{"properties":{"libel":"Bainville-sur-Madon","uic":"87141531","num":"040000","pk":"15+643","frevoy":"NO","nom":"Bainville-sur-Madon","insee":"54043"},"type":"Feature","geometry":{"type":"Point","coordinates":[6.09954,48.586]}},
{"properties":{"libel":"Xeuilley","uic":"87141549","num":"040000","pk":"17+657","frevoy":"OO","nom":"Xeuilley","insee":"54596"},"type":"Feature","geometry":{"type":"Point","coordinates":[6.10197,48.56967]}},
{"properties":{"libel":"Pierreville","uic":"87141556","num":"040000","pk":"20+613","frevoy":"NO","nom":"Pierreville","insee":"54429"},"type":"Feature","geometry":{"type":"Point","coordinates":[6.1243,48.54845]}},
{"properties":{"libel":"Pulligny-Autrey","uic":"87141564","num":"040000","pk":"22+369","frevoy":"NO","nom":"Autrey","insee":"54032"},"type":"Feature","geometry":{"type":"Point","coordinates":[6.13767,48.53573]}},
{"properties":{"libel":"Ceintrey","uic":"87141572","num":"040000","pk":"24+728","frevoy":"NO","nom":"Ceintrey","insee":"54109"},"type":"Feature","geometry":{"type":"Point","coordinates":[6.15727,48.52468]}},
{"properties":{"libel":"Clérey-Omelmont","uic":"87141580","num":"040000","pk":"27+277","frevoy":"NN","nom":"Clérey-sur-Brenon","insee":"54132"},"type":"Feature","geometry":{"type":"Point","coordinates":[6.14101,48.50424]}},
{"properties":{"libel":"Tantonville","uic":"87141598","num":"040000","pk":"30+021","frevoy":"NO","nom":"Tantonville","insee":"54513"},"type":"Feature","geometry":{"type":"Point","coordinates":[6.12921,48.48391]}},
{"properties":{"libel":"Vézelise","uic":"87141606","num":"040000","pk":"32+390","frevoy":"NO","nom":"Vézelise","insee":"54563"},"type":"Feature","geometry":{"type":"Point","coordinates":[6.10078,48.48066]}},
{"properties":{"libel":"Forcelles-Saint-Gorgon","uic":"87141614","num":"040000","pk":"35+576","frevoy":"NN","nom":"Forcelles-Saint-Gorgon","insee":"54203"},"type":"Feature","geometry":{"type":"Point","coordinates":[6.1086,48.45426]}},
{"properties":{"libel":"Praye-sous-Vaudémont","uic":"87141622","num":"040000","pk":"38+421","frevoy":"NO","nom":"Praye","insee":"54434"},"type":"Feature","geometry":{"type":"Point","coordinates":[6.10093,48.43255]}},
{"properties":{"libel":"Saint-Firmin-Housseville","uic":"87141630","num":"040000","pk":"41+322","frevoy":"NN","nom":"Housséville","insee":"54268"},"type":"Feature","geometry":{"type":"Point","coordinates":[6.1246,48.41235]}},
{"properties":{"libel":"Diarville","uic":"87141648","num":"040000","pk":"43+027","frevoy":"NO","nom":"Housséville","insee":"54156"},"type":"Feature","geometry":{"type":"Point","coordinates":[6.12632,48.39783]}},
{"properties":{"libel":"Bouzanville-Boulaincourt","uic":"87141655","num":"040000","pk":"47+398","frevoy":"NN","nom":"Boulaincourt","insee":"88066"},"type":"Feature","geometry":{"type":"Point","coordinates":[6.08974,48.3711]}},
{"properties":{"libel":"Frenelle-la-Grande-Puzieux","uic":"87141663","num":"040000","pk":"50+630","frevoy":"NN","nom":"Frenelle-la-Grande","insee":"88185"},"type":"Feature","geometry":{"type":"Point","coordinates":[6.09451,48.34641]}},
{"properties":{"libel":"Poussay","uic":"87144204","num":"040000","pk":"54+323","frevoy":"NO","nom":"Poussay","insee":"88357"},"type":"Feature","geometry":{"type":"Point","coordinates":[6.12662,48.32243]}},
{"properties":{"libel":"Mirecourt","uic":"87144212","num":"040000","pk":"57+130","frevoy":"NO","nom":"Mirecourt","insee":"88304"},"type":"Feature","geometry":{"type":"Point","coordinates":[6.12914,48.29986]}},
{"properties":{"libel":"Barisey-la-Côte","uic":"87141754","num":"041000","pk":"0+000","frevoy":"NN","nom":"Barisey-au-Plain","insee":"54046"},"type":"Feature","geometry":{"type":"Point","coordinates":[5.83952,48.53291]}},
{"properties":{"libel":"Colombey-les-Belles","uic":"87141762","num":"041000","pk":"4+578","frevoy":"NN","nom":"Colombey-les-Belles","insee":"54135"},"type":"Feature","geometry":{"type":"Point","coordinates":[5.89172,48.5283]}},
{"properties":{"libel":"Favières","uic":"87141770","num":"041000","pk":"15+193","frevoy":"NN","nom":"Favières","insee":"54189"},"type":"Feature","geometry":{"type":"Point","coordinates":[5.95034,48.46334]}},
{"properties":{"libel":"Blainville-Damelevières","uic":"87141135","num":"042000","pk":"0+000","frevoy":"OO","nom":"Damelevières","insee":"54152"},"type":"Feature","geometry":{"type":"Point","coordinates":[6.39139,48.56201]}},
{"properties":{"libel":"Einvaux","uic":"87141200","num":"042000","pk":"7+482","frevoy":"NO","nom":"Einvaux","insee":"54175"},"type":"Feature","geometry":{"type":"Point","coordinates":[6.39312,48.5034]}},
{"properties":{"libel":"Bayon","uic":"87141218","num":"042000","pk":"14+994","frevoy":"NO","nom":"Virecourt","insee":"54585"},"type":"Feature","geometry":{"type":"Point","coordinates":[6.32287,48.46801]}},
{"properties":{"libel":"Charmes","uic":"87144055","num":"042000","pk":"25+346","frevoy":"OO","nom":"Charmes","insee":"88163"},"type":"Feature","geometry":{"type":"Point","coordinates":[6.30173,48.37869]}},
{"properties":{"libel":"Vincey","uic":"87144063","num":"042000","pk":"30+162","frevoy":"OO","nom":"Portieux","insee":"88355"},"type":"Feature","geometry":{"type":"Point","coordinates":[6.33574,48.34329]}},
{"properties":{"libel":"Châtel-Nomexy","uic":"87144071","num":"042000","pk":"35+853","frevoy":"OO","nom":"Nomexy","insee":"88327"},"type":"Feature","geometry":{"type":"Point","coordinates":[6.38754,48.30713]}},
{"properties":{"libel":"Igney","uic":"87144089","num":"042000","pk":"40+070","frevoy":"NO","nom":"Igney","insee":"88247"},"type":"Feature","geometry":{"type":"Point","coordinates":[6.39951,48.27092]}},
{"properties":{"libel":"Thaon","uic":"87144097","num":"042000","pk":"43+280","frevoy":"NO","nom":"Thaon-les-Vosges","insee":"88465"},"type":"Feature","geometry":{"type":"Point","coordinates":[6.41597,48.24468]}},
{"properties":{"libel":"Épinal","uic":"87144006","num":"042000","pk":"50+961","frevoy":"OO","nom":"Épinal","insee":"88160"},"type":"Feature","geometry":{"type":"Point","coordinates":[6.44127,48.17796]}},
{"properties":{"libel":"Dounoux","uic":"87144113","num":"042000","pk":"61+579","frevoy":"NN","nom":"Dounoux","insee":"88157"},"type":"Feature","geometry":{"type":"Point","coordinates":[6.44376,48.09619]}},
{"properties":{"libel":"Xertigny","uic":"87144121","num":"042000","pk":"69+503","frevoy":"NO","nom":"Xertigny","insee":"88530"},"type":"Feature","geometry":{"type":"Point","coordinates":[6.37678,48.05272]}},
{"properties":{"libel":"Bains-les-Bains","uic":"87144147","num":"042000","pk":"80+173","frevoy":"NO","nom":"Le Clerjus","insee":"88108"},"type":"Feature","geometry":{"type":"Point","coordinates":[6.29524,47.98123]}},
{"properties":{"libel":"Aillevillers","uic":"87185629","num":"042000","pk":"94+214","frevoy":"OO","nom":"Corbenay","insee":"70171"},"type":"Feature","geometry":{"type":"Point","coordinates":[6.33718,47.91418]}},
{"properties":{"libel":"Luxeuil-les-Bains","uic":"87185595","num":"042000","pk":"108+370","frevoy":"NO","nom":"Luxeuil-les-Bains","insee":"70311"},"type":"Feature","geometry":{"type":"Point","coordinates":[6.37235,47.81506]}},
{"properties":{"libel":"Lure","uic":"87185249","num":"042000","pk":"126+696","frevoy":"OO","nom":"Lure","insee":"70310"},"type":"Feature","geometry":{"type":"Point","coordinates":[6.4772,47.68406]}},
{"properties":{"libel":"Vitrey-Vernois","uic":"87142174","num":"050000","pk":"335+766","frevoy":"NN","nom":"Vitrey-sur-Mance","insee":"70548","info":"origine Ligne_de_Vitrey_-_Vernois_à_Bourbonne-les-Bains"},"type":"Feature","geometry":{"type":"Point","coordinates":[5.78129,47.8324]}},
{"properties":{"libel":"Voisey","uic":"87142190","num":"050000","pk":"344+499","frevoy":"NN","nom":"Voisey","insee":"52544"},"type":"Feature","geometry":{"type":"Point","coordinates":[5.78216,47.88904]}},
{"properties":{"libel":"Bourbonne-les-Bains","uic":"87142208","num":"050000","pk":"353+728","frevoy":"NN","nom":"Bourbonne-les-Bains","insee":"52060"},"type":"Feature","geometry":{"type":"Point","coordinates":[5.7552,47.95443]}},
{"properties":{"libel":"Jussey","uic":"87185355","num":"051000","pk":"0+000","frevoy":"ON","nom":"Jussey","insee":"70292"},"type":"Feature","geometry":{"type":"Point","coordinates":[5.90047,47.83716]}},
{"properties":{"libel":"Aisey-Villars","uic":"87185363","num":"051000","pk":"7+809","frevoy":"NN","nom":"Aisey-et-Richecourt","insee":"70009"},"type":"Feature","geometry":{"type":"Point","coordinates":[5.94596,47.87646]}},
{"properties":{"libel":"Corre","uic":"87185371","num":"051000","pk":"13+348","frevoy":"NN","nom":"Corre","insee":"70177"},"type":"Feature","geometry":{"type":"Point","coordinates":[5.9833,47.91526]}},
{"properties":{"libel":"Demangevelle-Vauvillers","uic":"87185389","num":"051000","pk":"17+227","frevoy":"NN","nom":"Demangevelle","insee":"70202"},"type":"Feature","geometry":{"type":"Point","coordinates":[6.0272,47.93209]}},
{"properties":{"libel":"Passavant","uic":"87185397","num":"051000","pk":"23+027","frevoy":"NN","nom":"Passavant-la-Rochère","insee":"70404"},"type":"Feature","geometry":{"type":"Point","coordinates":[6.03467,47.97399]}},
{"properties":{"libel":"Aillevillers","uic":"87185629","num":"053000","pk":"0+000/94+214","frevoy":"NN","nom":"Corbenay","insee":"70171"},"type":"Feature","geometry":{"type":"Point","coordinates":[6.337,47.9139]}},
{"properties":{"libel":"Plombières-les-Bains","uic":"87185694","num":"053000","pk":"10+688","frevoy":"NN","nom":"Plombières-les-Bains","insee":"88351","info":"Gare_de_Plombières-les-Bains terminus, La Vaivre à 10 km"},"type":"Feature","geometry":{"type":"Point","coordinates":[6.45194,47.96039]}},
{"properties":{"libel":"Aillevillers","uic":"87185629","num":"054000","pk":"94+214","frevoy":"OO","nom":"Corbenay","insee":"70171"},"type":"Feature","geometry":{"type":"Point","coordinates":[6.33273,47.90972]}},
{"properties":{"libel":"Corbenay","uic":"87185611","num":"054000","pk":"96+848","frevoy":"NN","nom":"Corbenay","insee":"70171"},"type":"Feature","geometry":{"type":"Point","coordinates":[6.33811,47.89319]}},
{"properties":{"libel":"Fougerolles","uic":"87185686","num":"054000","pk":"102+393","frevoy":"NN","nom":"Fougerolles","insee":"70245"},"type":"Feature","geometry":{"type":"Point","coordinates":[6.40821,47.88817]}},
{"properties":{"libel":"Pont-de-Ferjeux (PK)","uic":"87185688a","num":"054000","pk":"105+3xx","frevoy":"NN","nom":"Fougerolles","insee":"70245","info":"limite déclassement ajout??"},"type":"Feature","geometry":{"type":"Point","coordinates":[6.45561,47.90756]}},
{"properties":{"libel":"Le Val-d'Ajol","uic":"87185678","num":"054000","pk":"110+103","frevoy":"NN","nom":"Le Val-d'Ajol","insee":"88487"},"type":"Feature","geometry":{"type":"Point","coordinates":[6.49074,47.92723]}},
{"properties":{"libel":"Faymont","uic":"87185660","num":"054000","pk":"113+478","frevoy":"NN","nom":"Le Val-d'Ajol","insee":"88487"},"type":"Feature","geometry":{"type":"Point","coordinates":[6.51963,47.94819]}},
{"properties":{"libel":"Bas-Évette","uic":"87184200","num":"055000","pk":"435+830","frevoy":"OO","nom":"Évette-Salbert","insee":"90042"},"type":"Feature","geometry":{"type":"Point","coordinates":[6.8074,47.6812]}},
{"properties":{"libel":"La Chapelle-sous-Chaux","uic":"87184309","num":"055000","pk":"438+884","frevoy":"NN","nom":"Lachapelle-sous-Chaux","insee":"90057"},"type":"Feature","geometry":{"type":"Point","coordinates":[6.82697,47.70069]}},
{"properties":{"libel":"Giromagny","uic":"87184317","num":"055000","pk":"442+909","frevoy":"ON","nom":"Giromagny","insee":"90052","info":"terminus"},"type":"Feature","geometry":{"type":"Point","coordinates":[6.83051,47.73658]}},
{"properties":{"libel":"Aillevillers","uic":"87185629","num":"057000","pk":"94+214","frevoy":"OO","nom":"Corbenay","insee":"70171"},"type":"Feature","geometry":{"type":"Point","coordinates":[6.33202,47.90904]}},
{"properties":{"libel":"Saint-Loup","uic":"87185330","num":"057000","pk":"99+315","frevoy":"NN","nom":"Corbenay","insee":"70467"},"type":"Feature","geometry":{"type":"Point","coordinates":[6.29005,47.88149]}},
{"properties":{"libel":"Conflans-Varigney","uic":"87185306","num":"057000","pk":"107+994","frevoy":"NN","nom":"Conflans-sur-Lanterne","insee":"70168"},"type":"Feature","geometry":{"type":"Point","coordinates":[6.21223,47.82682]}},
{"properties":{"libel":"Port-d'Atelier-Amance","uic":"87185108","num":"057000","pk":"124+309","frevoy":"ON","nom":"Faverney","insee":"70228","info":"terminus"},"type":"Feature","geometry":{"type":"Point","coordinates":[6.04347,47.75866]}},
{"properties":{"libel":"Épinal","uic":"87144006","num":"060000","pk":"0+000","frevoy":"OO","nom":"Épinal","insee":"88160"},"type":"Feature","geometry":{"type":"Point","coordinates":[6.45315,48.14619]}},
{"properties":{"libel":"Arches","uic":"87144410","num":"060000","pk":"11+466","frevoy":"NO","nom":"Arches","insee":"88011"},"type":"Feature","geometry":{"type":"Point","coordinates":[6.52829,48.11989]}},
{"properties":{"libel":"Pouxeux","uic":"87144428","num":"060000","pk":"15+841","frevoy":"NO","nom":"Pouxeux","insee":"88358"},"type":"Feature","geometry":{"type":"Point","coordinates":[6.58104,48.10395]}},
{"properties":{"libel":"Éloyes","uic":"87144436","num":"060000","pk":"18+229","frevoy":"NO","nom":"Éloyes","insee":"88158"},"type":"Feature","geometry":{"type":"Point","coordinates":[6.59997,48.08713]}},
{"properties":{"libel":"Saint-Nabord","uic":"87146217","num":"060000","pk":"23+342","frevoy":"NO","nom":"Saint-Nabord","insee":"88429"},"type":"Feature","geometry":{"type":"Point","coordinates":[6.58137,48.04565]}},
{"properties":{"libel":"Remiremont","uic":"87144451","num":"060000","pk":"27+252","frevoy":"NO","nom":"Remiremont","insee":"88383"},"type":"Feature","geometry":{"type":"Point","coordinates":[6.59835,48.01683]}},
{"properties":{"libel":"Vecoux","uic":"87144469","num":"060000","pk":"32+791","frevoy":"NN","nom":"Vecoux","insee":"88498"},"type":"Feature","geometry":{"type":"Point","coordinates":[6.63442,47.98052]}},
{"properties":{"libel":"Hielle-Rupt","uic":"87146225","num":"060000","pk":"34+629","frevoy":"NN","nom":"Rupt-sur-Moselle","insee":"88408"},"type":"Feature","geometry":{"type":"Point","coordinates":[6.63398,47.96364]}},
{"properties":{"libel":"Maxonchamp","uic":"87146233","num":"060000","pk":"36+575","frevoy":"NN","nom":"Rupt-sur-Moselle","insee":"88408"},"type":"Feature","geometry":{"type":"Point","coordinates":[6.65872,47.92294]}},
{"properties":{"libel":"Rupt-sur-Moselle","uic":"87144519","num":"060000","pk":"39+869","frevoy":"NN","nom":"Rupt-sur-Moselle","insee":"88408"},"type":"Feature","geometry":{"type":"Point","coordinates":[6.66012,47.92288]}},
{"properties":{"libel":"Ferdrupt","uic":"87144527","num":"060000","pk":"44+093","frevoy":"NN","nom":"Ferdrupt","insee":"88170"},"type":"Feature","geometry":{"type":"Point","coordinates":[6.70201,47.90608]}},
{"properties":{"libel":"Ramonchamp","uic":"87144535","num":"060000","pk":"47+338","frevoy":"NN","nom":"Ramonchamp","insee":"88369"},"type":"Feature","geometry":{"type":"Point","coordinates":[6.73718,47.89003]}},
{"properties":{"libel":"Le Thillot","uic":"87144543","num":"060000","pk":"49+881","frevoy":"NN","nom":"Le Thillot","insee":"88468"},"type":"Feature","geometry":{"type":"Point","coordinates":[6.7658,47.88093]}},
{"properties":{"libel":"Fresse","uic":"87144550","num":"060000","pk":"51+912","frevoy":"NN","nom":"Fresse-sur-Moselle","insee":"88188"},"type":"Feature","geometry":{"type":"Point","coordinates":[6.78781,47.87252]}},
{"properties":{"libel":"Saint-Maurice-sur-Moselle","uic":"87144568","num":"060000","pk":"55+591","frevoy":"NN","nom":"Saint-Maurice-sur-Moselle","insee":"88426"},"type":"Feature","geometry":{"type":"Point","coordinates":[6.81931,47.85566]}},
{"properties":{"libel":"Bussang","uic":"87144584","num":"060000","pk":"59+917","frevoy":"NN","nom":"Bussang","insee":"88081"},"type":"Feature","geometry":{"type":"Point","coordinates":[6.85492,47.8843]}},
{"properties":{"libel":"Dommartin","uic":"87146241","num":"061000","pk":"0+424","frevoy":"NN","nom":"Dommartin-lès-Remiremont","insee":"88148"},"type":"Feature","geometry":{"type":"Point","coordinates":[6.63892,48.00258]}},
{"properties":{"libel":"Syndicat-Saint-Amé","uic":"87144618","num":"061000","pk":"3+349","frevoy":"NN","nom":"Le Syndicat","insee":"88409"},"type":"Feature","geometry":{"type":"Point","coordinates":[6.66603,48.02047]}},
{"properties":{"libel":"Vagney","uic":"87144634","num":"061000","pk":"6+747","frevoy":"NN","nom":"Le Syndicat","insee":"88486"},"type":"Feature","geometry":{"type":"Point","coordinates":[6.70989,48.00806]}},
{"properties":{"libel":"Zainvillers","uic":"87144659","num":"061000","pk":"8+455","frevoy":"NN","nom":"Vagney","insee":"88486"},"type":"Feature","geometry":{"type":"Point","coordinates":[6.7141,47.99363]}},
{"properties":{"libel":"Thiéfosse","uic":"87144667","num":"061000","pk":"11+359","frevoy":"NN","nom":"Thiéfosse","insee":"88467"},"type":"Feature","geometry":{"type":"Point","coordinates":[6.73099,47.97025]}},
{"properties":{"libel":"Saulxures-sur-Moselotte","uic":"87144675","num":"061000","pk":"15+970","frevoy":"NN","nom":"Saulxures-sur-Moselotte","insee":"88447"},"type":"Feature","geometry":{"type":"Point","coordinates":[6.76911,47.94589]}},
{"properties":{"libel":"Cornimont","uic":"87144691","num":"061000","pk":"20+678","frevoy":"NN","nom":"Cornimont","insee":"88116","info":"terminus"},"type":"Feature","geometry":{"type":"Point","coordinates":[6.82678,47.95726]}},
{"properties":{"libel":"Arches","uic":"87144410","num":"062000","pk":"0+000","frevoy":"NO","nom":"Arches","insee":"88011"},"type":"Feature","geometry":{"type":"Point","coordinates":[6.53106,48.11889]}},
{"properties":{"libel":"Jarménil","uic":"87144022","num":"062000","pk":"3+626","frevoy":"NN","nom":"Jarménil","insee":"88250"},"type":"Feature","geometry":{"type":"Point","coordinates":[6.57091,48.11699]}},
{"properties":{"libel":"Docelles-Cheniménil","uic":"87144030","num":"062000","pk":"7+853","frevoy":"OO","nom":"Cheniménil","insee":"88135"},"type":"Feature","geometry":{"type":"Point","coordinates":[6.61053,48.14354]}},
{"properties":{"libel":"Deycimont","uic":"87146258","num":"062000","pk":"11+910","frevoy":"NN","nom":"Deycimont","insee":"88131"},"type":"Feature","geometry":{"type":"Point","coordinates":[6.64978,48.16589]}},
{"properties":{"libel":"Lépanges","uic":"87144048","num":"062000","pk":"13+798","frevoy":"NO","nom":"Lépanges-sur-Vologne","insee":"88266"},"type":"Feature","geometry":{"type":"Point","coordinates":[6.67232,48.17274]}},
{"properties":{"libel":"Laval (Vosges)","uic":"87144139","num":"062000","pk":"17+009","frevoy":"NN","nom":"Laval-sur-Vologne","insee":"88261"},"type":"Feature","geometry":{"type":"Point","coordinates":[6.69578,48.19649]}},
{"properties":{"libel":"Bruyères","uic":"87144154","num":"062000","pk":"19+329","frevoy":"NO","nom":"Bruyères","insee":"88078"},"type":"Feature","geometry":{"type":"Point","coordinates":[6.71874,48.20497]}},
{"properties":{"libel":"Laveline-devant-Bruyères","uic":"87144162","num":"062000","pk":"23+257","frevoy":"NO","nom":"Laveline-devant-Bruyères","insee":"88262"},"type":"Feature","geometry":{"type":"Point","coordinates":[6.75127,48.18552]}},
{"properties":{"libel":"La Chapelle-devant-Bruyères","uic":"87144170","num":"062000","pk":"25+555","frevoy":"NN","nom":"La Chapelle-devant-Bruyères","insee":"88089"},"type":"Feature","geometry":{"type":"Point","coordinates":[6.78017,48.19116]}},
{"properties":{"libel":"Biffontaine","uic":"87144188","num":"062000","pk":"28+167","frevoy":"NO","nom":"Biffontaine","insee":"88059"},"type":"Feature","geometry":{"type":"Point","coordinates":[6.80719,48.20595]}},
{"properties":{"libel":"La Houssière","uic":"87146266","num":"062000","pk":"31+935","frevoy":"NN","nom":"La Houssière","insee":"88244"},"type":"Feature","geometry":{"type":"Point","coordinates":[6.85295,48.19879]}},
{"properties":{"libel":"Corcieux-Vanémont","uic":"87144196","num":"062000","pk":"33+877","frevoy":"NO","nom":"La Houssière","insee":"88244"},"type":"Feature","geometry":{"type":"Point","coordinates":[6.87763,48.19842]}},
{"properties":{"libel":"Saint-Léonard","uic":"87144477","num":"062000","pk":"40+804","frevoy":"NO","nom":"Saint-Léonard","insee":"88423"},"type":"Feature","geometry":{"type":"Point","coordinates":[6.94131,48.21683]}},
{"properties":{"libel":"Saulcy","uic":"87144493","num":"062000","pk":"43+254","frevoy":"NN","nom":"Saulcy-sur-Meurthe","insee":"88445"},"type":"Feature","geometry":{"type":"Point","coordinates":[6.95159,48.23805]}},
{"properties":{"libel":"Saint-Dié","uic":"87144014","num":"062000","pk":"48+925","frevoy":"OO","nom":"Saint-Dié-des-Vosges","insee":"88413"},"type":"Feature","geometry":{"type":"Point","coordinates":[6.9505,48.28143]}},
{"properties":{"libel":"Laveline-devant-Bruyères","uic":"87144162","num":"063000","pk":"0+000","frevoy":"NO","nom":"Laveline-devant-Bruyères","insee":"88262"},"type":"Feature","geometry":{"type":"Point","coordinates":[6.75329,48.18554]}},
{"properties":{"libel":"Granges","uic":"87144576","num":"063000","pk":"5+427","frevoy":"NN","nom":"Granges-sur-Vologne","insee":"88218"},"type":"Feature","geometry":{"type":"Point","coordinates":[6.79096,48.14739]}},
{"properties":{"libel":"Gérardmer","uic":"87144857","num":"063000","pk":"17+999","frevoy":"NN","nom":"Gérardmer","insee":"88196","info":"terminus"},"type":"Feature","geometry":{"type":"Point","coordinates":[6.87341,48.07219]}},
{"properties":{"libel":"Saint-Léonard","uic":"87144477","num":"064000","pk":"0+000","frevoy":"NO","nom":"Saint-Léonard","insee":"88423"},"type":"Feature","geometry":{"type":"Point","coordinates":[6.94156,48.21658]}},
{"properties":{"libel":"Anould","uic":"87144873","num":"064000","pk":"3+166","frevoy":"ON","nom":"Anould","insee":"88009"},"type":"Feature","geometry":{"type":"Point","coordinates":[6.95079,48.19041]}},
{"properties":{"libel":"Fraize","uic":"87144881","num":"064000","pk":"7+443","frevoy":"NN","nom":"Fraize","insee":"88181"},"type":"Feature","geometry":{"type":"Point","coordinates":[7.0028,48.18212]}},
{"properties":{"libel":"Mont-sur-Meurthe","uic":"87141143","num":"065000","pk":"0+000","frevoy":"NO","nom":"Mont-sur-Meurthe","insee":"54383"},"type":"Feature","geometry":{"type":"Point","coordinates":[6.45013,48.56009]}},
{"properties":{"libel":"Xermaménil-Lamath","uic":"87141226","num":"065000","pk":"3+328","frevoy":"NN","nom":"Lamath","insee":"54292"},"type":"Feature","geometry":{"type":"Point","coordinates":[6.45169,48.53205]}},
{"properties":{"libel":"Gerbéviller","uic":"87141234","num":"065000","pk":"9+691","frevoy":"NN","nom":"Gerbéviller","insee":"54222"},"type":"Feature","geometry":{"type":"Point","coordinates":[6.50897,48.49296]}},
{"properties":{"libel":"Moyen","uic":"87141242","num":"065000","pk":"14+959","frevoy":"NN","nom":"Moyen","insee":"54393"},"type":"Feature","geometry":{"type":"Point","coordinates":[6.56465,48.47578]}},
{"properties":{"libel":"Vallois","uic":"87148023","num":"065000","pk":"17+297","frevoy":"NN","nom":"Vallois","insee":"54543"},"type":"Feature","geometry":{"type":"Point","coordinates":[6.55179,48.45762]}},
{"properties":{"libel":"Magnières","uic":"87141267","num":"065000","pk":"18+690","frevoy":"NN","nom":"Magnières","insee":"54331"},"type":"Feature","geometry":{"type":"Point","coordinates":[6.55732,48.44572]}},
{"properties":{"libel":"Deinvillers","uic":"87144709","num":"065000","pk":"21+946","frevoy":"NN","nom":"Deinvillers","insee":"88127"},"type":"Feature","geometry":{"type":"Point","coordinates":[6.56698,48.41744]}},
{"properties":{"libel":"Roville-Saint-Maurice","uic":"87144717","num":"065000","pk":"25+447","frevoy":"NN","nom":"Saint-Maurice-sur-Mortagne","insee":"88425"},"type":"Feature","geometry":{"type":"Point","coordinates":[6.58696,48.39139]}},
{"properties":{"libel":"Rambervillers","uic":"87144725","num":"065000","pk":"32+663","frevoy":"NN","nom":"Rambervillers","insee":"88367"},"type":"Feature","geometry":{"type":"Point","coordinates":[6.63354,48.33983]}},
{"properties":{"libel":"Jeanménil","uic":"87144733","num":"065000","pk":"35+944","frevoy":"NN","nom":"Jeanménil","insee":"88251"},"type":"Feature","geometry":{"type":"Point","coordinates":[6.67251,48.32925]}},
{"properties":{"libel":"Autrey-Sainte-Hélène","uic":"87144758","num":"065000","pk":"39+591","frevoy":"NN","nom":"Autrey","insee":"88021"},"type":"Feature","geometry":{"type":"Point","coordinates":[6.68626,48.29818]}},
{"properties":{"libel":"Fremifontaine","uic":"87146308","num":"065000","pk":"43+067","frevoy":"NN","nom":"Fremifontaine","insee":"88184"},"type":"Feature","geometry":{"type":"Point","coordinates":[6.71056,48.27372]}},
{"properties":{"libel":"Brouvelieures","uic":"87144782","num":"065000","pk":"47+453","frevoy":"NN","nom":"Brouvelieures","insee":"88076"},"type":"Feature","geometry":{"type":"Point","coordinates":[6.73731,48.24053]}},
{"properties":{"libel":"Bruyères","uic":"87144154","num":"065000","pk":"54+616","frevoy":"NO","nom":"Bruyères","insee":"88078"},"type":"Feature","geometry":{"type":"Point","coordinates":[6.7262,48.20179]}},
{"properties":{"libel":"Lunéville","uic":"87141150","num":"067000","pk":"385+178","frevoy":"OO","nom":"Lunéville","insee":"54329"},"type":"Feature","geometry":{"type":"Point","coordinates":[6.50791,48.58828]}},